name,lat,lon,address,region,adm_zone
Абсолют Банк,55.770146,37.622523,"г. Москва, бул. Цветной, д. 18",Мещанский,ЦАО
Абсолют Банк,55.775655,37.683621,"г. Москва, ул. Бакунинская, д. 23/41",Басманный,ЦАО
Абсолют Банк,55.536639,37.530486,"г. Москва, ул. Южнобутовская, д. 61",Южное Бутово,ЮЗАО
Абсолют Банк,55.73414,37.664015,"г. Москва, ул. Воронцовская, д. 35 Б, корп. 2",Таганский,ЦАО
Абсолют Банк,55.767246,37.653245,"г. Москва, ул. Садовая-Черногрязская, д. 3 Б, стр. 1",Басманный,ЦАО
Абсолют Банк,55.744621,37.545683,"г. Москва, просп. Кутузовский, д. 24",Дорогомилово,ЗАО
Абсолют Банк,55.787046,37.560865,"г. Москва, просп. Ленинградский, д. 33, корп. 3",Беговой,САО
Абсолют Банк,55.650553,37.745655,"г. Москва, ул. Люблинская, д. 165",Марьино,ЮВАО
Абсолют Банк,55.731096,37.634509,"г. Москва, ул. Валовая, д. 2—4/44, стр. 1",Замоскворечье,ЦАО
Абсолют Банк,55.789273,37.678452,"г. Москва, пл. Сокольническая, д. 4, корп. 1—2",Сокольники,ВАО
Абсолют Банк,55.770473,37.623939,"г. Москва, пер. Малый Сухаревский, д. 7",Мещанский,ЦАО
Авангард,55.741263,37.614101,"г. Москва, ул. Большая Якиманка, д. 1",Якиманка,ЦАО
Авангард,55.803569,37.61839,"г. Москва, ул. Шереметьевская, д. 20",Марьина Роща,СВАО
Авангард,55.732233,37.6296,"г. Москва, 3-й Монетчиковский пер., д. 11, стр. 1",Замоскворечье,ЦАО
Авангард,55.863356,37.601546,"г. Москва, ул. Декабристов, д. 12",Отрадное,СВАО
Авангард,55.737633,37.618417,"г. Москва, ул. Большая Полянка, д. 24/2, стр. 4",Якиманка,ЦАО
Авангард,55.809469,37.464571,"г. Москва, ул. Щукинская, д. 42",Щукино,СЗАО
Авангард,55.641031,37.530346,"г. Москва, ул. Миклухо-Маклая, д. 32а",Коньково,ЮЗАО
Авангард,55.747363,37.707098,"г. Москва, ш. Энтузиастов, д. 12, корп. 2",Лефортово,ЮВАО
Авангард,55.788576,37.678685,"г. Москва, ул. Русаковская, д. 31",Сокольники,ВАО
Авангард,55.637741,37.75759,"г. Москва, ул. Ключевая, д. 6, корп. 1",Братеево,ЮАО
Авангард,55.863856,37.54568,"г. Москва, ш. Дмитровское, д. 89",Западное Дегунино,САО
Авангард,55.857236,37.431909,"г. Москва, ул. Героев Панфиловцев, д. 7",Северное Тушино,СЗАО
Авангард,55.84024,37.492024,"г. Москва, ш. Головинское, д. 5, корп. 1",Головинский,САО
Авангард,55.624632,37.709297,"г. Москва, ш. Каширское, д. 80",Орехово-Борисово Северное,ЮАО
Авангард,55.743649,37.508122,"г. Москва, просп. Багратионовский, д. 5",Филёвский Парк,ЗАО
Авангард,55.78169,37.705186,"г. Москва, ул. Большая Семеновская, д. 20, стр. 1",Соколиная Гора,ВАО
Авангард,55.653314,37.64613,"г. Москва, ш. Каширское, д. 26",Москворечье-Сабурово,ЮАО
Авангард,55.685804,37.854028,"г. Москва, ул. Генерала Кузнецова, д. 22",Выхино-Жулебино,ЮВАО
Авангард,55.653644,37.620698,"г. Москва, ш. Варшавское, д. 87 Б",Нагорный,ЮАО
Авангард,55.710692,37.675109,"г. Москва, ул. 7-я Кожуховская, д. 9",Южнопортовый,ЮВАО
Авангард,55.865579,37.704492,"г. Москва, ш. Ярославское, д. 54",Ярославский,СВАО
Авангард,55.695875,37.664905,"г. Москва, просп. Андропова, д. 8",Даниловский,ЮАО
Авангард,55.630655,37.658545,"г. Москва, просп. Пролетарский, д. 30",Царицыно,ЮАО
Авангард,55.803761,37.800293,"г. Москва, бул. Сиреневый, д. 31",Северное Измайлово,ВАО
Авангард,55.885697,37.602265,"г. Москва, ул. Пришвина, д. 22",Бибирево,СВАО
Авангард,55.838032,37.576948,"г. Москва, Локомотивный пр-д, д. 4",Тимирязевский,САО
Авангард,55.685516,37.62169,"г. Москва, ш. Варшавское, д. 26, стр. 10",Нагорный,ЮАО
Авангард,55.81616,37.574573,"г. Москва, ш. Дмитровское, д. 11, стр. 1",Тимирязевский,САО
Авангард,55.777488,37.643191,"г. Москва, пер. Грохольский, д. 29, корп. 1",Красносельский,ЦАО
Авангард,55.722616,37.560342,"г. Москва, ул. Усачева, д. 35, стр. 1",Хамовники,ЦАО
Авангард,55.731927,37.611638,"г. Москва, ул. Большая Якиманка, д. 52",Якиманка,ЦАО
Авангард,55.678562,37.781964,"г. Москва, бул. Тихорецкий, д. 1, стр. 70",Люблино,ЮВАО
Авангард,55.70023,37.506158,"г. Москва, просп. Мичуринский, д. 9, корп. 3",Раменки,ЗАО
Авангард,55.815484,37.738076,"г. Москва, ш. Открытое, д. 9, стр. 1",Богородское,ВАО
Авангард,55.611971,37.537706,"г. Москва, бул. Литовский, д. 22",Ясенево,ЮЗАО
Авангард,55.901981,37.585629,"г. Москва, ш. Алтуфьевское, д. 95",Лианозово,СВАО
Авангард,55.738065,37.846616,"г. Москва, ул. Суздальская, д. 12а",Новокосино,ВАО
Авангард,55.734655,37.830852,"г. Москва, ул. Вешняковская, д. 17а, стр. 1",Вешняки,ВАО
Авангард,55.641217,37.359743,"г. Москва, ш. Боровское, д. 35",Ново-Переделкино,ЗАО
Авангард,55.641347,37.656,"г. Москва, просп. Пролетарский, д. 19, корп. 1",Москворечье-Сабурово,ЮАО
Авангард,55.547056,37.543303,"г. Москва, ул. Адмирала Лазарева, д. 2",Южное Бутово,ЮЗАО
Авангард,55.586414,37.647813,"г. Москва, ул. Медынская, д. 7",Бирюлёво Западное,ЮАО
Авангард,55.893844,37.524982,"г. Москва, ул. Лобненская, д. 14",Дмитровский,САО
Авангард,55.805816,37.514955,"г. Москва, просп. Ленинградский, д. 76а",Аэропорт,САО
Авангард,55.822541,37.823413,"г. Москва, ул. Хабаровская, д. 15",Гольяново,ВАО
Авангард,55.619624,37.752274,"г. Москва, ул. Кустанайская, д. 6",Зябликово,ЮАО
Авангард,55.682738,37.723018,"г. Москва, ул. Шоссейная, д. 34, стр. 1",Печатники,ЮВАО
Авангард,55.647315,37.412014,"г. Москва, просп. Солнцевский, д. 21",Солнцево,ЗАО
Авангард,55.766313,37.622345,"г. Москва, пл. Трубная, д. 2",Мещанский,ЦАО
Авангард,55.898474,37.629075,"г. Москва, МКАД, 87-й км, д. 8",Бибирево,СВАО
Авангард,55.793137,37.559961,"г. Москва, ал. Театральная, д. 3, стр. 1",Аэропорт,САО
Авангард,55.710119,37.62094,"г. Москва, ул. Большая Тульская, д. 2",Даниловский,ЮАО
Авангард,55.767116,37.829049,"г. Москва, ул. Саянская д. 8а",Ивановское,ВАО
Авангард,55.669632,37.552865,"г. Москва, ул. Профсоюзная, д. 56",Обручевский,ЮЗАО
Авангард,55.683141,37.549177,"г. Москва, ул. Вавилова, д. 66",Гагаринский,ЮЗАО
Авангард,55.733956,37.667253,"г. Москва, ул. Марксистская, д. 38, стр. 1",Таганский,ЦАО
Авангард,55.852877,37.58547,"г. Москва, ш. Алтуфьевское, д. 8",Отрадное,СВАО
Авангард,55.707084,37.591794,"г. Москва, ул. Вавилова, д. 3",Донской,ЮАО
Авангард,55.658708,37.741703,"г. Москва, ул. Люблинская, д. 153",Марьино,ЮВАО
Авангард,55.766459,37.381288,"г. Москва, ш. Рублевское, д. 62",Крылатское,ЗАО
Авангард,55.618274,37.507213,"г. Москва, ул. Профсоюзная, д. 129а",Ясенево,ЮЗАО
Авангард,55.789604,37.752197,"г. Москва, ш. Измайловское, д. 71а",Измайлово,ВАО
Авангард,55.630109,37.474571,"г. Москва, ул. Академика Варги, д. 8, корп. 1",Тёплый Стан,ЮЗАО
Авангард,55.718197,37.78407,"г. Москва, просп. Рязанский, д. 30, корп. 2",Рязанский,ЮВАО
Авангард,55.750783,37.820341,"г. Москва, просп. Зеленый, д. 62а",Новогиреево,ВАО
Авангард,55.625101,37.761014,"г. Москва, ш. Бесединское, вл. 15",Братеево,ЮАО
Авангард,55.853208,37.351378,"г. Москва, ул. Митинская, д. 53",Митино,СЗАО
Авангард,55.761611,37.568804,"г. Москва, ул. Красная Пресня, д. 23, корп. Б, стр. 1",Пресненский,ЦАО
Авангард,55.877371,37.559165,"г. Москва, ул. Дубнинская, д. 30а, стр. 1",Восточное Дегунино,САО
Авангард,55.887544,37.678371,"г. Москва, ул. Широкая, д. 31",Северное Медведково,СВАО
Авангард,55.709988,37.744304,"г. Москва, просп. Волгоградский, д. 73, стр. 1",Текстильщики,ЮВАО
Авангард,55.655406,37.572013,"г. Москва, ул. Каховка, д. 27",Зюзино,ЮЗАО
Авангард,55.885039,37.407275,"г. Москва, ш. Новокуркинское, д. 1",Куркино,СЗАО
Авангард,55.869291,37.663098,"г. Москва, ул. Енисейская, д. 19, корп. 1",Бабушкинский,СВАО
Авангард,55.663788,37.486104,"г. Москва, просп. Вернадского, д. 105, корп. 4",Тропарёво-Никулино,ЗАО
Авангард,55.594593,37.599216,"г. Москва, ш. Варшавское, д. 152а",Чертаново Южное,ЮАО
Авангард,55.729765,37.732295,"г. Москва, просп. Рязанский, д. 2, корп. 2",Нижегородский,ЮВАО
Авангард,55.609742,37.71991,"г. Москва, бул. Ореховый, д. 14, корп. 3",Орехово-Борисово Южное,ЮАО
Авангард,55.683888,37.491044,"г. Москва, ул. Удальцова, д. 42",Проспект Вернадского,ЗАО
Автоградбанк,55.787776,37.633052,"г. Москва, ул. Гиляровского, д. 62",Мещанский,ЦАО
Автоторгбанк,55.768674,37.526475,"г. Москва, ул. 1-я Магистральная, д. 13, стр. 2",Хорошёвский,САО
Автоторгбанк,55.79473,37.650874,"г. Москва, ул. Сокольнический Вал, д. 1л",Сокольники,ВАО
Автоторгбанк,55.82831,37.407571,"г. Москва, ш. Волоколамское, д. 93",Покровское-Стрешнево,СЗАО
Автоторгбанк,55.907216,37.550641,"г. Москва, ул. Псковская, д. 13",Лианозово,СВАО
Автоторгбанк,55.788181,37.386851,"г. Москва, ул. Маршала Прошлякова, д. 13",Строгино,СЗАО
Автоторгбанк,55.841713,37.435964,"г. Москва, Цветочный пр-д, д. 4",Южное Тушино,СЗАО
Агора,55.775398,37.622226,"г. Москва, пер. 2-й Троицкий, д. 3",Мещанский,ЦАО
Агора,55.659607,37.645564,"г. Москва, ш. Каширское, д. 23, стр. 3",Нагатино-Садовники,ЮАО
Агропромкредит,55.738992,37.578576,"г. Москва, ул. Бурденко, д. 22",Хамовники,ЦАО
Агропромкредит,55.768613,37.633661,"г. Москва, пер. Просвирин, д. 4",Красносельский,ЦАО
Агророс,55.781157,37.667043,"г. Москва, ул. Краснопрудная, д. 13",Красносельский,ЦАО
Агророс,55.750082,37.787498,"г. Москва, просп. Зеленый, д. 20",Новогиреево,ВАО
Азиатско-Тихоокеанский Банк,55.742627,37.658736,"г. Москва, ул. Александра Солженицына, д. 8, стр. 1",Таганский,ЦАО
Азиатско-Тихоокеанский Банк,55.754628,37.652997,"г. Москва, пер. Подсосенский, д. 30, стр. 3",Басманный,ЦАО
Азиатско-Тихоокеанский Банк,55.759185,37.604683,"г. Москва, пер. Вознесенский, д. 11, стр. 1",Пресненский,ЦАО
Азия-Инвест Банк,55.73437,37.621563,"г. Москва, пер. 2-й Казачий, д. 3, стр. 1",Якиманка,ЦАО
АйСиБиСи Банк,55.750516,37.652969,"г. Москва, наб. Серебряническая, д. 29",Таганский,ЦАО
Ак Барс,55.724728,37.643938,"г. Москва, ул. Летниковская, д. 10, стр. 1",Замоскворечье,ЦАО
Ак Барс,55.862035,37.604457,"г. Москва, ул. Хачатуряна, д. 20",Отрадное,СВАО
Ак Барс,55.737372,37.663619,"г. Москва, ул. Марксистская, д. 5, стр. 1",Таганский,ЦАО
Ак Барс,55.769805,37.629617,"г. Москва, пер. Последний, д. 24",Мещанский,ЦАО
Ак Барс,55.854868,37.471414,"г. Москва, ш. Ленинградское, д. 92/1",Левобережный,САО
Акибанк,55.786627,37.641063,"г. Москва, ул. Большая Переяславская, д. 46, стр. 2",Мещанский,ЦАО
Александровский,55.753776,37.662126,"г. Москва, пер. 2-й Сыромятнический, д. 1",Таганский,ЦАО
Алеф-Банк,55.67459,37.503468,"г. Москва, просп. Вернадского, д. 41",Проспект Вернадского,ЗАО
Алеф-Банк,55.73221,37.435422,"г. Москва, ул. Молдавская, д. 5",Кунцево,ЗАО
Альфа-Банк,55.774829,37.650531,"г. Москва, ул. Каланчевская, д. 27",Красносельский,ЦАО
Альфа-Банк,55.76155,37.573296,"г. Москва, ул. Красная Пресня, д. 12, стр. 1",Пресненский,ЦАО
Альфа-Банк,55.869846,37.660127,"г. Москва, ул. Менжинского, д. 23, корп. 1",Бабушкинский,СВАО
Альфа-Банк,55.773019,37.676951,"г. Москва, ул. Нижняя Красносельская, д. 45/17",Басманный,ЦАО
Альфа-Банк,55.887446,37.402602,"г. Москва, ул. Воротынская, д. 2",Куркино,СЗАО
Альфа-Банк,55.611133,37.724342,"г. Москва, ул. Генерала Белова, 35",Орехово-Борисово Южное,ЮАО
Альфа-Банк,55.760717,37.596174,"г. Москва, ул. Малая Бронная, д. 15 Б",Пресненский,ЦАО
Альфа-Банк,55.757805,37.637401,"г. Москва, ул. Маросейка, д. 10/1, стр. 1",Басманный,ЦАО
Альфа-Банк,55.769019,37.598274,"г. Москва, ул. Тверская, д. 28, корп. 1",Тверской,ЦАО
Альфа-Банк,55.741738,37.416691,"г. Москва, ул. Ярцевская, д. 27, корп. 1",Кунцево,ЗАО
Альфа-Банк,55.701819,37.931735,"г. Москва, ул. Покровская, д. 20",Некрасовка,ЮВАО
Альфа-Банк,55.760717,37.596174,"г. Москва, ул. Малая Бронная, д. 15 Б",Пресненский,ЦАО
Альфа-Банк,55.657604,37.481673,"г. Москва, просп. Вернадского, д. 119",Тропарёво-Никулино,ЗАО
Альфа-Банк,55.862141,37.436634,"г. Москва, ул. Планерная, д. 12, корп. 1",Северное Тушино,СЗАО
Альфа-Банк,55.692861,37.66221,"г. Москва, просп. Андропова, д. 18, корп. 6",Даниловский,ЮАО
Альфа-Банк,55.794963,37.798727,"г. Москва, ул. 9-я Парковая, д. 23",Измайлово,ВАО
Альфа-Банк,55.806179,37.581352,"г. Москва, ул. Бутырская, д. 89",Савёловский,САО
Альфа-Банк,55.887393,37.402428,"г. Москва, ул. Воротынская, д. 2",Куркино,СЗАО
Альфа-Банк,55.611127,37.7243,"г. Москва, ул. Генерала Белова, 35",Орехово-Борисово Южное,ЮАО
Альфа-Банк,55.777436,37.601919,"г. Москва, ул. Долгоруковская, д. 31, стр. 32",Тверской,ЦАО
Альфа-Банк,55.820294,37.496115,"г. Москва, ш. Ленинградское, д. 15",Войковский,САО
Альфа-Банк,55.741738,37.416691,"г. Москва, ул. Ярцевская, д. 27, корп. 1",Кунцево,ЗАО
Альфа-Банк,55.76948,37.622749,"г. Москва, бул. Цветной, д. 16/1",Мещанский,ЦАО
Альфа-Банк,55.771459,37.583131,"г. Москва, ул. Большая Грузинская, д. 57, стр. 1",Пресненский,ЦАО
Альфа-Банк,55.764394,37.556146,"г. Москва, ш. Звенигородское, д. 18/20, корп. 1",Пресненский,ЦАО
Альфа-Банк,55.726086,37.631002,"г. Москва, ул. Щипок, д. 11, стр. 1",Замоскворечье,ЦАО
Альфа-Банк,55.7427,37.587999,"г. Москва, пер. Денежный, д. 3, стр. 1",Хамовники,ЦАО
Альфа-Банк,55.733875,37.624532,"г. Москва, ул. Большая Ордынка, д. 49, стр. 1",Замоскворечье,ЦАО
Альфа-Банк,55.769869,37.570833,"г. Москва, пер. Большой Тишинский, д. 38",Пресненский,ЦАО
Альфа-Банк,55.792441,37.527414,"г. Москва, ул. Авиаконструктора Микояна, д. 12",Хорошёвский,САО
Альфа-Банк,55.708507,37.662307,"г. Москва, ул. Автозаводская, д. 5",Даниловский,ЮАО
Альфа-Банк,55.708347,37.661588,"г. Москва, ул. Автозаводская, д. 5",Даниловский,ЮАО
Альфа-Банк,55.774845,37.650568,"г. Москва, ул. Каланчевская, д. 27",Красносельский,ЦАО
Альфа-Банк,55.806164,37.635534,"г. Москва, просп. Мира, д. 91, корп. 2",Останкинский,СВАО
Альфа-Банк,55.89865,37.59143,"г. Москва, ул. Лескова, д. 3г",Бибирево,СВАО
Альфа-Банк,55.583203,37.595498,"г. Москва, ш. Варшавское, д. 160",Чертаново Южное,ЮАО
Альфа-Банк,55.582998,37.595435,"г. Москва, ш. Варшавское, д. 160",Чертаново Южное,ЮАО
Альфа-Банк,55.862747,37.608226,"г. Москва, ул. Декабристов, д. 20, корп. 2",Отрадное,СВАО
Альфа-Банк,55.639732,37.606848,"г. Москва, ул. Чертановская, д. 1в, корп. 1",Чертаново Северное,ЮАО
Альфа-Банк,55.805198,37.516452,"г. Москва, просп. Ленинградский, д. 74, корп. 1",Аэропорт,САО
Альфа-Банк,55.641953,37.524458,"г. Москва, ул. Профсоюзная, д. 104",Коньково,ЮЗАО
Альфа-Банк,55.709482,37.620911,"г. Москва, ул. Большая Тульская, д. 2",Даниловский,ЮАО
Альфа-Банк,55.657806,37.747664,"г. Москва, ул. Перерва, д. 56/2",Марьино,ЮВАО
Альфа-Банк,55.548383,37.553235,"г. Москва, бул. Адмирала Ушакова, д. 2",Южное Бутово,ЮЗАО
Альфа-Банк,55.566834,37.576181,"г. Москва, бул. Дмитрия Донского, д. 11",Северное Бутово,ЮЗАО
Альфа-Банк,55.566869,37.576217,"г. Москва, бул. Дмитрия Донского, д. 11",Северное Бутово,ЮЗАО
Альфа-Банк,55.654302,37.618872,"г. Москва, ш. Варшавское, д. 76, корп. 1",Нагорный,ЮАО
Альфа-Банк,55.694197,37.532943,"г. Москва, просп. Ломоносовский, д. 25, корп. 1",Раменки,ЗАО
Альфа-Банк,55.754579,37.657455,"г. Москва, ул. Земляной Вал, д. 41, стр. 1",Таганский,ЦАО
Альфа-Банк,55.780689,37.63376,"г. Москва, просп. Мира, д. 42",Мещанский,ЦАО
Альфа-Банк,55.709483,37.620911,"г. Москва, ул. Большая Тульская, д. 2",Даниловский,ЮАО
Альфа-Банк,55.806179,37.581352,"г. Москва, ул. Бутырская, д. 89",Савёловский,САО
Альфа-Банк,55.694202,37.532927,"г. Москва, просп. Ломоносовский, д. 25, корп. 1",Раменки,ЗАО
Альфа-Банк,55.745684,37.56269,"г. Москва, ул. Большая Дорогомиловская, д. 1",Дорогомилово,ЗАО
Альфа-Банк,55.70068,37.851704,"г. Москва, просп. Лермонтовский, д. 10, корп. 1",Выхино-Жулебино,ЮВАО
Альфа-Банк,55.707328,37.768314,"г. Москва, ул. Зеленодольская, д. 31, корп. 1",Кузьминки,ЮВАО
Альфа-Банк,55.774838,37.65051,"г. Москва, ул. Каланчевская, д. 27",Красносельский,ЦАО
Альфа-Банк,55.745694,37.562454,"г. Москва, ул. Большая Дорогомиловская, д. 1",Дорогомилово,ЗАО
Альфа-Банк,55.677756,37.666013,"г. Москва, ул. Новинки, д. 1",Нагатинский Затон,ЮАО
Альфа-Банк,55.727949,37.580954,"г. Москва, просп. Комсомольский, д. 24, стр. 1",Хамовники,ЦАО
Альфа-Банк,55.76155,37.573296,"г. Москва, ул. Красная Пресня, д. 12, стр. 1",Пресненский,ЦАО
Альфа-Банк,55.773019,37.676951,"г. Москва, ул. Нижняя Красносельская, д. 45/17",Басманный,ЦАО
Альфа-Банк,55.731225,37.666418,"г. Москва, пер. 3-й Крутицкий, д. 11",Южнопортовый,ЮВАО
Альфа-Банк,55.758207,37.407,"г. Москва, бул. Осенний, д. 9",Крылатское,ЗАО
Альфа-Банк,55.761892,37.620329,"г. Москва, ул. Неглинная, д. 10",Мещанский,ЦАО
Альфа-Банк,55.707527,37.768293,"г. Москва, ул. Зеленодольская, д. 31, корп. 1",Кузьминки,ЮВАО
Альфа-Банк,55.741429,37.537338,"г. Москва, просп. Кутузовский, д. 30/32, стр. 1",Дорогомилово,ЗАО
Альфа-Банк,55.741418,37.537259,"г. Москва, просп. Кутузовский, д. 30/32, стр. 1",Дорогомилово,ЗАО
Альфа-Банк,55.700598,37.851947,"г. Москва, просп. Лермонтовский, д. 10, корп. 1",Выхино-Жулебино,ЮВАО
Альфа-Банк,55.682983,37.536714,"г. Москва, просп. Ленинский, д. 78",Ломоносовский,ЮЗАО
Альфа-Банк,55.650188,37.745991,"г. Москва, ул. Люблинская, д. 165, корп. 1",Марьино,ЮВАО
Альфа-Банк,55.75458,37.657456,"г. Москва, ул. Земляной Вал, д. 41, стр. 1",Таганский,ЦАО
Альфа-Банк,55.740287,37.658796,"г. Москва, ул. Марксистская, д. 1, корп. 1",Таганский,ЦАО
Альфа-Банк,55.650209,37.745997,"г. Москва, ул. Люблинская, д. 165, корп. 1",Марьино,ЮВАО
Альфа-Банк,55.750459,37.539476,"г. Москва, 1-й Красногвардейский пр-д, д. 15",Пресненский,ЦАО
Альфа-Банк,55.641997,37.524592,"г. Москва, ул. Профсоюзная, д. 104",Коньково,ЮЗАО
Альфа-Банк,55.846499,37.361917,"г. Москва, ул. Митинская, д. 36, корп. 1",Митино,СЗАО
Альфа-Банк,55.657756,37.747396,"г. Москва, ул. Перерва, д. 56/2",Марьино,ЮВАО
Альфа-Банк,55.761839,37.620336,"г. Москва, ул. Неглинная, д. 10/ ул. Кузнецкий Мост, д. 9",Мещанский,ЦАО
Альфа-Банк,55.751348,37.816496,"г. Москва, просп. Свободный, д. 20а",Новогиреево,ВАО
Альфа-Банк,55.777436,37.601919,"г. Москва, ул. Долгоруковская, д. 31, стр. 32",Тверской,ЦАО
Альфа-Банк,55.607668,37.532855,"г. Москва, просп. Новоясеневский, вл. 7",Ясенево,ЮЗАО
Альфа-Банк,55.780723,37.633807,"г. Москва, просп. Мира, д. 42",Мещанский,ЦАО
Альфа-Банк,55.869763,37.660377,"г. Москва, ул. Менжинского, д. 23, корп. 1",Бабушкинский,СВАО
Альфа-Банк,55.862751,37.608229,"г. Москва, ул. Декабристов, д. 20, корп. 2",Отрадное,СВАО
Альфа-Банк,55.731065,37.634234,"г. Москва, ул. Валовая, д. 6",Замоскворечье,ЦАО
Альфа-Банк,55.746276,37.682176,"г. Москва, бул. Энтузиастов, д. 2",Таганский,ЦАО
Альфа-Банк,55.744734,37.582791,"г. Москва, пл. Смоленская-Сенная, д. 27, стр. 1",Хамовники,ЦАО
Альфа-Банк,55.76749,37.56446,"г. Москва, ул. Пресненский Вал, д. 7, стр. 1",Пресненский,ЦАО
Альфа-Банк,55.73133,37.66624,"г. Москва, пер. 3-й Крутицкий, д. 11",Южнопортовый,ЮВАО
Альфа-Банк,55.677781,37.666011,"г. Москва, ул. Новинки, д. 1",Нагатинский Затон,ЮАО
Альфа-Банк,55.657604,37.481673,"г. Москва, просп. Вернадского, д. 119",Тропарёво-Никулино,ЗАО
Альфа-Банк,55.806117,37.635529,"г. Москва, просп. Мира, д. 91, корп. 2",Останкинский,СВАО
Альфа-Банк,55.679661,37.565373,"г. Москва, ул. Профсоюзная, д. 15",Академический,ЮЗАО
Альфа-Банк,55.738307,37.627922,"г. Москва, ул. Пятницкая, д. 40, стр. 1",Замоскворечье,ЦАО
Альфа-Банк,55.702616,37.50936,"г. Москва, просп. Мичуринский, д. 7",Раменки,ЗАО
Альфа-Банк,55.855506,37.476625,"г. Москва, ул. Фестивальная, д. 13, корп. 1",Левобережный,САО
Альфа-Банк,55.855507,37.47662,"г. Москва, ул. Фестивальная, д. 13, корп. 1",Левобережный,САО
Альфа-Банк,55.746276,37.682179,"г. Москва, бул. Энтузиастов, д. 2",Таганский,ЦАО
Альфа-Банк,55.751321,37.81626,"г. Москва, просп. Свободный, д. 20а",Новогиреево,ВАО
Альфа-Банк,55.781828,37.722932,"г. Москва, ул. Вельяминовская, д. 6, стр. 2",Соколиная Гора,ВАО
Альфа-Банк,55.548385,37.553235,"г. Москва, бул. Адмирала Ушакова, д. 2",Южное Бутово,ЮЗАО
Альфа-Банк,55.744734,37.582794,"г. Москва, пл. Смоленская-Сенная, д. 27, стр. 1",Хамовники,ЦАО
Альфа-Банк,55.787546,37.677662,"г. Москва, ул. Русаковская, д. 29",Сокольники,ВАО
Альфа-Банк,55.787709,37.677473,"г. Москва, ул. Русаковская, д. 29",Сокольники,ВАО
Альфа-Банк,55.752132,37.599098,"г. Москва, ул. Арбат, д. 4, стр. 1",Арбат,ЦАО
Альфа-Банк,55.851074,37.434498,"г. Москва, бул. Яна Райниса, д. 2, корп. 1",Северное Тушино,СЗАО
Альфа-Банк,55.740289,37.658801,"г. Москва, ул. Марксистская, д. 1, корп. 1",Таганский,ЦАО
Альфа-Банк,55.818735,37.573776,"г. Москва, ш. Дмитровское, д. 13а",Тимирязевский,САО
Альфа-Банк,55.728256,37.58031,"г. Москва, просп. Комсомольский, д. 24, стр. 1",Хамовники,ЦАО
Альфа-Банк,55.740991,37.625037,"г. Москва, ул. Большая Ордынка, д. 21, стр. 2",Замоскворечье,ЦАО
Альфа-Банк,55.675596,37.505594,"г. Москва, просп. Вернадского, д. 39",Проспект Вернадского,ЗАО
Альфа-Банк,55.766983,37.56435,"г. Москва, ул. Пресненский Вал, д. 7, стр. 1",Пресненский,ЦАО
Альфа-Банк,55.792456,37.527411,"г. Москва, ул. Авиаконструктора Микояна, д. 12",Хорошёвский,САО
Альфа-Банк,55.731138,37.633899,"г. Москва, ул. Валовая, д. 6",Замоскворечье,ЦАО
Альфа-Банк,55.809687,37.460098,"г. Москва, ул. Авиационная, д. 66",Щукино,СЗАО
Альфа-Банк,55.67046,37.55623,"г. Москва, ул. Гарибальди, д. 25, корп. 1",Черёмушки,ЮЗАО
Альфа-Банк,55.846529,37.362047,"г. Москва, ул. Митинская, д. 36, корп. 1",Митино,СЗАО
Альфа-Банк,55.898616,37.591359,"г. Москва, ул. Лескова, д. 3г",Бибирево,СВАО
Альфа-Банк,55.622515,37.667676,"г. Москва, ул. Луганская, д. 10",Царицыно,ЮАО
Альфа-Банк,55.657806,37.747689,"г. Москва, ул. Перерва, д. 56/2",Марьино,ЮВАО
Альфа-Банк,55.805181,37.51645,"г. Москва, просп. Ленинградский, д. 74, корп. 1",Аэропорт,САО
Альфа-Банк,55.811477,37.797781,"г. Москва, ул. Уральская, д. 1",Гольяново,ВАО
Альфа-Банк,55.818785,37.573795,"г. Москва, ш. Дмитровское, д. 13а",Тимирязевский,САО
Альфа-Банк,55.777444,37.52128,"г. Москва, ш. Хорошевское, д. 35, корп. 1",Хорошёвский,САО
Альфа-Банк,55.777502,37.521331,"г. Москва, ш. Хорошевское, д. 35, корп. 1",Хорошёвский,САО
Альфа-Банк,55.622504,37.667702,"г. Москва, ул. Луганская, д. 10",Царицыно,ЮАО
Альфа-Банк,55.679659,37.565373,"г. Москва, ул. Профсоюзная, д. 15",Академический,ЮЗАО
Альфа-Банк,55.639729,37.606848,"г. Москва, ул. Чертановская, д. 1в, корп. 1",Чертаново Северное,ЮАО
Альфа-Банк,55.654446,37.61887,"г. Москва, ш. Варшавское, д. 76, корп. 1",Нагорный,ЮАО
Альфа-Банк,55.702611,37.509363,"г. Москва, просп. Мичуринский, д. 7",Раменки,ЗАО
Альфа-Банк,55.811602,37.798028,"г. Москва, ул. Уральская, д. 1",Гольяново,ВАО
Альфа-Банк,55.781858,37.722954,"г. Москва, ул. Вельяминовская, д. 6, стр. 2",Соколиная Гора,ВАО
Альфа-Банк,55.809687,37.460098,"г. Москва, ул. Авиационная, д. 66",Щукино,СЗАО
Альфа-Банк,55.675424,37.505226,"г. Москва, просп. Вернадского, д. 39",Проспект Вернадского,ЗАО
Альфа-Банк,55.851099,37.434885,"г. Москва, бул. Яна Райниса, д. 2, корп. 1",Северное Тушино,СЗАО
Альфа-Банк,55.607653,37.532839,"г. Москва, просп. Новоясеневский, вл. 7",Ясенево,ЮЗАО
Альфа-Банк,55.82018,37.496131,"г. Москва, ш. Ленинградское, д. 15",Войковский,САО
Америкэн Экспресс Банк,55.723207,37.561124,"г. Москва, ул. Усачева, д. 33, стр. 1",Хамовники,ЦАО
Аресбанк,55.752164,37.532841,"г. Москва, ул. Тестовская, д. 10",Пресненский,ЦАО
Банк Акцепт,55.737232,37.516837,"г. Москва, пл. Победы, д. 2, корп. 2",Дорогомилово,ЗАО
Банк БКФ,55.762272,37.569899,"г. Москва, ул. Красная Пресня, д. 24",Пресненский,ЦАО
Банк БКФ,55.801536,37.636715,"г. Москва, просп. Мира, д. 102, корп. 2",Алексеевский,СВАО
Банк БКФ,55.793308,37.620501,"г. Москва, ул. Сущевский Вал, д. 63",Марьина Роща,СВАО
Банк Глобус,55.736021,37.634555,"г. Москва, ул. Бахрушина, д. 10, стр. 1",Замоскворечье,ЦАО
Банк Глобус,55.736021,37.634555,"г. Москва, ул. Бахрушина, д. 10, стр. 1",Замоскворечье,ЦАО
Банк ДОМ.РФ,55.753437,37.606032,"г. Москва, ул. Воздвиженка, д. 10",Арбат,ЦАО
Банк ДОМ.РФ,55.74751,37.534954,"г. Москва, наб. Пресненская, д. 10, стр. 2",Пресненский,ЦАО
Банк ДОМ.РФ,55.773727,37.579899,"г. Москва, пер. Грузинский, д. 16, стр. 1",Пресненский,ЦАО
Банк ДОМ.РФ,55.820913,37.64559,"г. Москва, ул. Космонавтов, д. 4",Алексеевский,СВАО
Банк ДОМ.РФ,55.743213,37.427631,"г. Москва, ш. Рублевское, д. 22, корп. 1",Кунцево,ЗАО
Банк ДОМ.РФ,55.750664,37.564099,"г. Москва, просп. Кутузовский, д. 2/1, корп. 1а",Дорогомилово,ЗАО
Банк ДОМ.РФ,55.646253,37.746942,"г. Москва, ул. Люблинская, д. 175",Марьино,ЮВАО
Банк ДОМ.РФ,55.780073,37.706053,"г. Москва, наб. Семеновская, д. 3/1, корп. 6",Басманный,ЦАО
Банк ДОМ.РФ,55.668639,37.565677,"г. Москва, ул. Новочеремушкинская, д. 61",Черёмушки,ЮЗАО
Банк Жилищного Финансирования,55.709389,37.442914,"г. Москва, ул. Верейская, д. 29, стр. 134",Можайский,ЗАО
Банк Жилищного Финансирования,55.74403,37.56194,"г. Москва, ул. Брянская, д. 5",Дорогомилово,ЗАО
Банк Зенит,55.663897,37.599057,"г. Москва, ул. Одесская, д. 2",Зюзино,ЮЗАО
Банк Зенит,55.699138,37.42295,"г. Москва, ул. Рябиновая, д. 43 Б",Очаково-Матвеевское,ЗАО
Банк Зенит,55.792195,37.49672,"г. Москва, ул. Маршала Бирюзова, д. 8, корп. 1",Щукино,СЗАО
Банк Зенит,55.664183,37.598661,"г. Москва, ул. Одесская, д. 2",Зюзино,ЮЗАО
Банк Зенит,55.839654,37.490369,"г. Москва, ш. Головинское, д. 5, корп. 1",Головинский,САО
Банк Зенит,55.744507,37.564927,"г. Москва, пл. Киевского вокзала, д. 2",Дорогомилово,ЗАО
Банк Зенит,55.7885,37.634395,"г. Москва, просп. Мира, д. 71, стр. 1",Мещанский,ЦАО
Банк Зенит,55.782273,37.734214,"г. Москва, ул. Щербаковская, д. 40",Соколиная Гора,ВАО
Банк Зенит,55.751273,37.641769,"г. Москва, ул. Солянка, д. 13/3, стр. 1",Таганский,ЦАО
Банк Зенит,55.771134,37.403037,"г. Москва, ул. Крылатская, д. 35",Крылатское,ЗАО
Банк Зенит,55.880845,37.547041,"г. Москва, ш. Дмитровское, д. 98, стр. 1",Восточное Дегунино,САО
Банк Зенит,55.757303,37.503586,"г. Москва, Береговой пр-д, д. 4/6, стр. 3",Филёвский Парк,ЗАО
Банк Зенит,55.775435,37.833097,"г. Москва, ш. Энтузиастов, д. 59",Ивановское,ВАО
Банк Зенит,55.669084,37.443269,"г. Москва, ул. Озерная, д. 44а",Очаково-Матвеевское,ЗАО
Банк Зенит,55.849363,37.684772,"г. Москва, ул. Красная Сосна, д. 5, стр. 1",Ярославский,СВАО
Банк Интеза,55.757322,37.636406,"г. Москва, пер. Петроверигский, д. 2, стр. 2",Басманный,ЦАО
Банк Интеза,55.774882,37.603334,"г. Москва, ул. Долгоруковская, д. 19, стр. 1",Тверской,ЦАО
Банк Интеза,55.741972,37.618534,"г. Москва, пер. Малый Толмачевский, д. 6, стр. 1",Якиманка,ЦАО
Банк Интеза,55.757308,37.636468,"г. Москва, пер. Петроверигский, д. 2, стр. 2",Басманный,ЦАО
Банк Казани,55.821015,37.631409,"г. Москва, ул. Академика Королева, д. 3",Останкинский,СВАО
Банк Казани,55.780279,37.516602,"г. Москва, ул. Куусинена, д. 4а, корп. 1",Хорошёвский,САО
Банк Казани,55.712089,37.658921,"г. Москва, ул. Восточная, д. 13",Даниловский,ЮАО
Банк Кредит Свисс,55.774553,37.587104,"г. Москва, ул. 1-я Тверская-Ямская, д. 21",Тверской,ЦАО
Банк Кремлевский,55.748602,37.580653,"г. Москва, пер. 1-й Николощеповский, д. 6, стр. 1",Арбат,ЦАО
Банк Кремлевский,55.748706,37.580544,"г. Москва, пер. 1-й Николощеповский, д. 6, стр. 2",Арбат,ЦАО
Банк Кремлевский,55.762905,37.616575,"г. Москва, ул. Петровка, д. 11",Тверской,ЦАО
Банк Кремлевский,55.774133,37.65171,"г. Москва, ул. Каланчевская, д. 21/40",Красносельский,ЦАО
Банк Кремлевский,55.745408,37.580472,"г. Москва, ул. Смоленская, д. 5",Хамовники,ЦАО
Банк Кремлевский,55.768471,37.59948,"г. Москва, ул. Тверская, д. 26/1",Тверской,ЦАО
Банк Оранжевый,55.768807,37.645434,"г. Москва, ул. Мясницкая, д. 48",Красносельский,ЦАО
Банк Открытие,55.728802,37.643339,"г. Москва, ул. Летниковская, д. 2, стр. 4",Замоскворечье,ЦАО
Банк Открытие,55.58292,37.595689,"г. Москва, ш. Варшавское, д. 160",Чертаново Южное,ЮАО
Банк Открытие,55.658019,37.748016,"г. Москва, ул. Перерва, д. 56/2",Марьино,ЮВАО
Банк Открытие,55.812691,37.638642,"г. Москва, просп. Мира, д. 122",Алексеевский,СВАО
Банк Открытие,55.821215,37.497797,"г. Москва, ш. Ленинградское, д. 16а, стр. 1",Войковский,САО
Банк Открытие,55.804485,37.519265,"г. Москва, просп. Ленинградский, д. 70",Аэропорт,САО
Банк Открытие,55.699771,37.500511,"г. Москва, просп. Мичуринский, д. 26",Раменки,ЗАО
Банк Открытие,55.720811,37.435249,"г. Москва, ш. Можайское, д. 11",Можайский,ЗАО
Банк Открытие,55.745529,37.648326,"г. Москва, ул. Верхняя Радищевская, д. 2/1, стр. 5",Таганский,ЦАО
Банк Открытие,55.752209,37.594267,"г. Москва, ул. Новый Арбат, д. 13",Арбат,ЦАО
Банк Открытие,55.736586,37.621733,"г. Москва, ул. Большая Ордынка, д. 40, стр. 4",Якиманка,ЦАО
Банк Открытие,55.86233,37.609679,"г. Москва, ул. Декабристов, д. 20, корп. 2",Отрадное,СВАО
Банк Открытие,55.789909,37.680408,"г. Москва, пл. Сокольническая, д. 9",Сокольники,ВАО
Банк Открытие,55.743513,37.651824,"г. Москва, ул. Верхняя Радищевская, д. 13, стр. 3",Таганский,ЦАО
Банк Открытие,55.761819,37.567911,"г. Москва, ул. Красная Пресня, д. 23 Б, стр. 1",Пресненский,ЦАО
Банк Открытие,55.792716,37.527484,"г. Москва, ул. Авиаконструктора Микояна, д. 12",Хорошёвский,САО
Банк Открытие,55.640195,37.606272,"г. Москва, ул. Чертановская, д. 1г",Чертаново Северное,ЮАО
Банк Открытие,55.663806,37.484864,"г. Москва, просп. Вернадского, д. 105, корп. 3",Тропарёво-Никулино,ЗАО
Банк Открытие,55.535003,37.528173,"г. Москва, ул. Южнобутовская, д. 69",Южное Бутово,ЮЗАО
Банк Открытие,55.772914,37.590753,"г. Москва, ул. 1-я Тверская-Ямская, д. 11",Тверской,ЦАО
Банк Открытие,55.745686,37.647396,"г. Москва, ул. Верхняя Радищевская, д. 2/1, стр. 3",Таганский,ЦАО
Банк Открытие,55.754339,37.71533,"г. Москва, ул. Авиамоторная, д. 10, корп. 1",Лефортово,ЮВАО
Банк Открытие,55.8704,37.661774,"г. Москва, ул. Менжинского, д. 38, корп. 1, стр. 2",Бабушкинский,СВАО
Банк Открытие,55.730273,37.632084,"г. Москва, ул. Валовая, д. 11/19",Замоскворечье,ЦАО
Банк Открытие,55.681669,37.850703,"г. Москва, ул. Привольная, д. 65/32",Выхино-Жулебино,ЮВАО
Банк Открытие,55.633251,37.518777,"г. Москва, ул. Профсоюзная, д. 126, корп. 1",Тёплый Стан,ЮЗАО
Банк Открытие,55.694376,37.532926,"г. Москва, просп. Ломоносовский, д. 25, корп. 1",Раменки,ЗАО
Банк Открытие,55.739503,37.414774,"г. Москва, ул. Ярцевская, д. 24, корп. 2",Кунцево,ЗАО
Банк Открытие,55.741475,37.535826,"г. Москва, просп. Кутузовский, д. 30",Дорогомилово,ЗАО
Банк Открытие,55.783401,37.601302,"г. Москва, ул. Сущевская, д. 27, стр. 1",Тверской,ЦАО
Банк Открытие,55.730968,37.611685,"г. Москва, ул. Большая Якиманка, д. 54",Якиманка,ЦАО
Банк Открытие,55.757148,37.648133,"г. Москва, бул. Покровский, д. 3, стр. 1",Басманный,ЦАО
Банк Открытие,55.777626,37.51688,"г. Москва, ш. Хорошевское, д. 88, стр. 1",Хорошёвский,САО
Банк Открытие,55.681379,37.567247,"г. Москва, ул. Профсоюзная, д. 11/11",Академический,ЮЗАО
Банк Открытие,55.745586,37.647763,"г. Москва, ул. Верхняя Радищевская, д. 2/1, стр. 5",Таганский,ЦАО
Банк Открытие,55.771004,37.671391,"г. Москва, ул. Спартаковская, д. 5, стр. 1",Басманный,ЦАО
Банк Раунд,55.74783,37.425617,"г. Москва, ш. Рублевское, д. 28",Крылатское,ЗАО
Банк Раунд,55.605588,37.287194,"г. Москва, ул. 2-я Рейсовая, д. 2, корп. 5",Внуково,ЗАО
Банк РМП,55.767785,37.565514,"г. Москва, ул. Климашкина, д. 21, стр. 1",Пресненский,ЦАО
Банк РМП,55.795019,37.706117,"г. Москва, ул. Преображенская, д. 2, корп. 1",Преображенское,ВАО
Банк РМП,55.705952,37.602342,"г. Москва, 2-й Рощинский пр-д, д. 8, стр. 3",Донской,ЮАО
Банк РМП,55.711879,37.686728,"г. Москва, ул. Угрешская, д. 2, стр. 15",Печатники,ЮВАО
Банк РСИ,55.733111,37.62576,"г. Москва, ул. Малая Ордынка, д. 35, стр. 1",Замоскворечье,ЦАО
Банк «Санкт-Петербург»,55.753843,37.662228,"г. Москва, пер. 2-й Сыромятнический, д. 1",Таганский,ЦАО
Банк «Санкт-Петербург»,55.736199,37.62299,"г. Москва, ул. Большая Ордынка, д. 40, стр. 2",Якиманка,ЦАО
Банк «Санкт-Петербург»,55.705763,37.635799,"г. Москва, ул. Автозаводская, д. 22",Даниловский,ЮАО
Банк Синара (СКБ-банк),55.706618,37.374695,"г. Москва, бул. Большой, д. 5",Можайский,ЗАО
Банк Синара (СКБ-банк),55.761421,37.650214,"г. Москва, ул. Чаплыгина, д. 17",Басманный,ЦАО
Банк Синара (СКБ-банк),55.761437,37.653139,"г. Москва, ул. Покровка, д. 40, стр. 2а",Басманный,ЦАО
Банк Уралсиб,55.726293,37.576913,"г. Москва, ул. Ефремова, д. 8",Хамовники,ЦАО
Банк Уралсиб,55.889738,37.538414,"г. Москва, ул. Лобненская, д. 4а",Дмитровский,САО
Банк Уралсиб,55.797279,37.802642,"г. Москва, бул. Измайловский, д. 55",Измайлово,ВАО
Банк Уралсиб,55.709804,37.76744,"г. Москва, ул. Зеленодольская, д. 36, корп. 1",Кузьминки,ЮВАО
Банк Уралсиб,55.771457,37.595113,"г. Москва, ул. 2-я Тверская-Ямская, д. 14",Тверской,ЦАО
Банк Уралсиб,55.574947,37.58023,"г. Москва, бул. Дмитрия Донского, д. 1",Северное Бутово,ЮЗАО
Банк Уралсиб,55.743655,37.545703,"г. Москва, просп. Кутузовский, д. 27",Дорогомилово,ЗАО
Банк Уралсиб,55.788472,37.557704,"г. Москва, просп. Ленинградский, д. 33а",Беговой,САО
Банк Уралсиб,55.68519,37.540135,"г. Москва, просп. Ленинский, д. 72/2",Гагаринский,ЮЗАО
Банк Уралсиб,55.645601,37.747256,"г. Москва, ул. Люблинская, д. 175",Марьино,ЮВАО
Банк Уралсиб,55.845998,37.363242,"г. Москва, ул. Митинская, д. 36",Митино,СЗАО
Банк Уралсиб,55.820961,37.632254,"г. Москва, ул. Академика Королева, д. 3",Останкинский,СВАО
Банк Уралсиб,55.722233,37.627831,"г. Москва, ул. Большая Серпуховская, д. 31, корп. 1",Замоскворечье,ЦАО
Банк Уралсиб,55.788379,37.681634,"г. Москва, ул. Русаковская, д. 28, корп. 1 Б",Сокольники,ВАО
Банк Уралсиб,55.74028,37.658871,"г. Москва, ул. Марксистская, д. 1, корп. 1",Таганский,ЦАО
Банк Уралсиб,55.67052,37.552322,"г. Москва, ул. Профсоюзная, д. 56",Обручевский,ЮЗАО
Банк Уралсиб,55.77799,37.463069,"г. Москва, просп. Маршала Жукова, д. 58, корп. 1",Хорошёво-Мнёвники,СЗАО
Банк Уралсиб,55.637898,37.655736,"г. Москва, ул. Кантемировская, д. 47",Царицыно,ЮАО
Банк Уралсиб,55.733276,37.64321,"г. Москва, наб. Космодамианская, д. 52, стр. 5",Замоскворечье,ЦАО
Банк Финсервис,55.746228,37.546093,"г. Москва, наб. Тараса Шевченко, д. 23а",Дорогомилово,ЗАО
Банк Финсервис,55.743844,37.55592,"г. Москва, ул. Можайский Вал, д. 8 Б",Дорогомилово,ЗАО
ББР Банк,55.748739,37.581063,"г. Москва, пер. 1-й Николощеповский, д. 6, стр. 1",Арбат,ЦАО
ББР Банк,55.758022,37.645787,"г. Москва, бул. Покровский, д. 4/17, стр. 1",Басманный,ЦАО
БКС Банк,55.78642,37.634212,"г. Москва, просп. Мира, д. 69, стр. 1",Мещанский,ЦАО
БКС Банк,55.78642,37.634212,"г. Москва, просп. Мира, д. 69, стр. 1",Мещанский,ЦАО
БКС Банк,55.74655,37.559682,"г. Москва, ул. Большая Дорогомиловская, д. 14",Дорогомилово,ЗАО
БКС Банк,55.690894,37.548843,"г. Москва, просп. Ленинский, д. 66",Гагаринский,ЮЗАО
БКС Банк,55.761407,37.570835,"г. Москва, ул. Красная Пресня, д. 21",Пресненский,ЦАО
БКС Банк,55.738074,37.661845,"г. Москва, ул. Марксистская, д. 3, стр. 1",Таганский,ЦАО
БКС Банк,55.780169,37.599798,"г. Москва, ул. Новослободская, д. 11",Тверской,ЦАО
БКС Банк,55.709791,37.620885,"г. Москва, ул. Большая Тульская, д. 2",Даниловский,ЮАО
БКС Банк,55.731224,37.635333,"г. Москва, ул. Валовая, д. 2—4/44, стр. 1",Замоскворечье,ЦАО
БКС Мир Инвестиций,55.78642,37.634212,"г. Москва, просп. Мира, д. 69, стр. 1",Мещанский,ЦАО
Бланк,55.699467,37.625594,"г. Москва, ш. Варшавское, д. 9, стр. 1",Донской,ЮАО
БМ-Банк,55.762432,37.623864,"г. Москва, ул. Рождественка, д. 8/15, стр. 3",Мещанский,ЦАО
БМ-Банк,55.75937,37.631487,"г. Москва, пер. Большой Златоустинский, д. 4",Басманный,ЦАО
БМ-Банк,55.759135,37.631511,"г. Москва, пер. Лучников, д. 7/4, стр. 6",Басманный,ЦАО
БМВ Банк,55.837878,37.480884,"г. Москва, ш. Ленинградское, д. 39а, стр. 1",Войковский,САО
БНП Париба Банк,55.778126,37.586893,"г. Москва, ул. Лесная, д. 5",Тверской,ЦАО
БыстроБанк,55.772901,37.637856,"г. Москва, пер. 1-й Коптельский, д. 4, стр. 1",Красносельский,ЦАО
Бэнк оф Чайна,55.789144,37.636332,"г. Москва, просп. Мира, д. 72",Мещанский,ЦАО
Вайлдберриз Банк,55.771925,37.616483,"г. Москва, пер. Большой Каретный, д. 20, стр. 2",Тверской,ЦАО
Веста Банк,55.722603,37.5611,"г. Москва, ул. Усачева, д. 35, стр. 1",Хамовники,ЦАО
Владбизнесбанк,55.787642,37.632555,"г. Москва, ул. Гиляровского, д. 57, стр. 1",Мещанский,ЦАО
Внешфинбанк,55.844534,37.36311,"г. Москва, ул. Митинская, д. 25",Митино,СЗАО
Внешфинбанк,55.71727,37.795172,"г. Москва, просп. Рязанский, д. 77",Рязанский,ЮВАО
Внешфинбанк,55.742947,37.634645,"г. Москва, пер. Руновский, д. 6, стр. 2",Замоскворечье,ЦАО
Всероссийский Банк Развития Регионов,55.79345,37.62161,"г. Москва, ул. Сущевский Вал, д. 65, корп. 1",Марьина Роща,СВАО
Всероссийский Банк Развития Регионов,55.751155,37.599442,"г. Москва, пл. Арбатская, д. 1",Арбат,ЦАО
Всероссийский Банк Развития Регионов,55.77566,37.553412,"г. Москва, ул. Беговая, д. 3, стр. 1",Хорошёвский,САО
Всероссийский Банк Развития Регионов,55.725067,37.637565,"г. Москва, ул. Дубининская, д. 31а",Замоскворечье,ЦАО
Всероссийский Банк Развития Регионов,55.716976,37.599319,"г. Москва, ул. Малая Калужская, д. 15, стр. 7",Донской,ЮАО
Всероссийский Банк Развития Регионов,55.747558,37.619861,"г. Москва, наб. Софийская, д. 26/1, стр. 1",Якиманка,ЦАО
Всероссийский Банк Развития Регионов,55.723317,37.609795,"г. Москва, ул. Шаболовка, д. 10, корп. 2",Якиманка,ЦАО
ВТБ,55.790983,37.559143,"г. Москва, просп. Ленинградский, д. 36",Аэропорт,САО
ВТБ,55.75596,37.627135,"г. Москва, пер. Большой Черкасский, д. 10/11, стр. 1",Тверской,ЦАО
ВТБ,55.847295,37.638521,"г. Москва, Лазоревый пр-д, д. 1а, корп. 2",Свиблово,СВАО
ВТБ,55.548452,37.553361,"г. Москва, бул. Адмирала Ушакова, д. 2",Южное Бутово,ЮЗАО
ВТБ,55.708663,37.590255,"г. Москва, ул. Вавилова, д. 4",Донской,ЮАО
ВТБ,55.743267,37.563023,"г. Москва, ул. Киевская, д. 2",Дорогомилово,ЗАО
ВТБ,55.818685,37.497198,"г. Москва, ш. Ленинградское, д. 13, корп. 1",Войковский,САО
ВТБ,55.770851,37.649516,"г. Москва, Красноворотский пр-д, д. 3",Красносельский,ЦАО
ВТБ,55.758848,37.631382,"г. Москва, пер. Лучников, д. 7/4",Басманный,ЦАО
ВТБ,55.659349,37.754931,"г. Москва, ул. Братиславская, д. 14",Марьино,ЮВАО
ВТБ,55.748914,37.535466,"г. Москва, наб. Пресненская, д. 10, стр. 1",Пресненский,ЦАО
ВТБ,55.71648,37.4071,"г. Москва, ш. Можайское, д. 45 Б",Кунцево,ЗАО
ВТБ,55.644198,37.526682,"г. Москва, ул. Профсоюзная, д. 102а",Коньково,ЮЗАО
ВТБ,55.707491,37.928632,"г. Москва, ул. Рождественская, д. 29",Некрасовка,ЮВАО
ВТБ,55.757085,37.595618,"г. Москва, ул. Большая Никитская, д. 33, стр. 1",Пресненский,ЦАО
ВТБ,55.781839,37.633278,"г. Москва, просп. Мира, д. 41, стр. 2",Мещанский,ЦАО
ВТБ,55.736997,37.588732,"г. Москва, бул. Зубовский, д. 27/26, стр. 1",Хамовники,ЦАО
ВТБ,55.773162,37.626308,"г. Москва, ул. Садовая-Сухаревская, д. 8/12, стр. 3",Мещанский,ЦАО
ВТБ,55.619467,37.50928,"г. Москва, просп. Новоясеневский, д. 1",Ясенево,ЮЗАО
ВТБ,55.767205,37.624229,"г. Москва, ул. Трубная, д. 2",Мещанский,ЦАО
ВТБ,55.792392,37.527842,"г. Москва, ул. Авиаконструктора Микояна, д. 12",Хорошёвский,САО
ВТБ,55.789433,37.536616,"г. Москва, бул. Ходынский, д. 2",Хорошёвский,САО
ВТБ,55.77675,37.602265,"г. Москва, ул. Долгоруковская, д. 27, стр. 1",Тверской,ЦАО
ВТБ,55.754106,37.556581,"г. Москва, наб. Краснопресненская, д. 12",Пресненский,ЦАО
ВТБ,55.763314,37.509574,"г. Москва, наб. Шелепихинская, д. 34, корп. 2",Хорошёво-Мнёвники,СЗАО
ВТБ,55.702729,37.509746,"г. Москва, просп. Мичуринский, д. 7",Раменки,ЗАО
ВТБ,55.80978,37.463981,"г. Москва, ул. Щукинская, д. 42",Щукино,СЗАО
ВТБ,55.736997,37.588732,"г. Москва, бул. Зубовский, д. 27/26, стр. 1",Хамовники,ЦАО
ВТБ,55.758841,37.658207,"г. Москва, ул. Земляной Вал, д. 27, стр. 1",Басманный,ЦАО
ВТБ,55.761893,37.622129,"г. Москва, ул. Кузнецкий Мост, д. 16/5, стр. 1",Мещанский,ЦАО
ВТБ,55.749891,37.537031,"г. Москва, наб. Пресненская, д. 12",Пресненский,ЦАО
ВТБ,55.762278,37.624586,"г. Москва, ул. Кузнецкий Мост, д. 17, стр. 1",Мещанский,ЦАО
ВТБ,55.74034,37.615944,"г. Москва, ул. Большая Полянка, д. 10, стр. 1",Якиманка,ЦАО
ВТБ,55.763264,37.623827,"г. Москва, ул. Рождественка, д. 10/2, стр. 1",Мещанский,ЦАО
ВТБ,55.753963,37.715174,"г. Москва, ул. Авиамоторная, д. 10, корп. 1",Лефортово,ЮВАО
ВТБ,55.686684,37.575214,"г. Москва, ул. Дмитрия Ульянова, д. 24",Академический,ЮЗАО
ВТБ,55.809485,37.636531,"г. Москва, просп. Мира, д. 97",Останкинский,СВАО
ВТБ,55.899978,37.588229,"г. Москва, ш. Алтуфьевское, д. 90",Бибирево,СВАО
ВТБ,55.747779,37.586628,"г. Москва, ул. Арбат, д. 51, стр. 1",Арбат,ЦАО
ВТБ,55.748927,37.537782,"г. Москва, наб. Пресненская, д. 2",Пресненский,ЦАО
ВТБ,55.605714,37.286861,"г. Москва, ул. 2-я Рейсовая, д. 2, корп. 5",Внуково,ЗАО
ВТБ,55.869277,37.665682,"г. Москва, ул. Менжинского, д. 21",Бабушкинский,СВАО
ВТБ,55.740726,37.501065,"г. Москва, ул. Барклая, д. 7, корп. 1",Филёвский Парк,ЗАО
ВТБ,55.770023,37.669106,"г. Москва, ул. Новая Басманная, д. 37а",Басманный,ЦАО
ВТБ,55.749287,37.537368,"г. Москва, наб. Пресненская, д. 12",Пресненский,ЦАО
ВТБ,55.77924,37.586609,"г. Москва, пер. 4-й Лесной, д. 4",Тверской,ЦАО
ВТБ,55.642539,37.52417,"г. Москва, ул. Профсоюзная, д. 104",Коньково,ЮЗАО
ВТБ,55.885337,37.6052,"г. Москва, ул. Пришвина, д. 23",Бибирево,СВАО
ВТБ,55.737453,37.617955,"г. Москва, пер. Бродников, д. 4",Якиманка,ЦАО
ВТБ,55.815625,37.732122,"г. Москва, ул. Ивантеевская, д. 23",Богородское,ВАО
ВТБ,55.566897,37.576297,"г. Москва, бул. Дмитрия Донского, д. 11",Северное Бутово,ЮЗАО
ВТБ,55.824017,37.645637,"г. Москва, просп. Мира, д. 180",Алексеевский,СВАО
ВТБ,55.681131,37.515234,"г. Москва, просп. Вернадского, д. 29",Ломоносовский,ЮЗАО
ВТБ,55.85524,37.562941,"г. Москва, ш. Дмитровское, д. 64, корп. 1",Бескудниковский,САО
ВТБ,55.721214,37.823088,"г. Москва, Вешняковская, д. 20 Б",Вешняки,ВАО
ВТБ,55.752705,37.604878,"г. Москва, ул. Воздвиженка, д. 9",Арбат,ЦАО
ВТБ,55.821428,37.498714,"г. Москва, ш. Ленинградское, д. 16а, стр. 2",Войковский,САО
ВТБ,55.704114,37.771267,"г. Москва, просп. Волгоградский, д. 94, корп. 1",Кузьминки,ЮВАО
ВТБ,55.693058,37.552611,"г. Москва, просп. Ленинский, д. 64/2",Гагаринский,ЮЗАО
ВТБ,55.745139,37.599677,"г. Москва, бул. Гоголевский, д. 5, стр. 1",Хамовники,ЦАО
ВТБ,55.754636,37.621634,"г. Москва, пл. Красная, д. 3",Тверской,ЦАО
ВТБ,55.714569,37.623795,"г. Москва, ш. Подольское, д. 8, стр. 5",Даниловский,ЮАО
ВТБ,55.612255,37.722106,"г. Москва, ул. Генерала Белова, д. 33а",Орехово-Борисово Северное,ЮАО
ВТБ,55.681645,37.850416,"г. Москва, ул. Привольная, д. 65/32",Выхино-Жулебино,ЮВАО
ВТБ,55.749377,37.655128,"г. Москва, ул. Земляной Вал, д. 52/16, стр. 1",Таганский,ЦАО
ВТБ,55.807812,37.798105,"г. Москва, ул. 9-я Парковая, д. 59, корп. 1",Северное Измайлово,ВАО
ВТБ,55.796387,37.805744,"г. Москва, бул. Измайловский, д. 46",Восточное Измайлово,ВАО
ВТБ,55.77674,37.648348,"г. Москва, ул. Каланчевская, д. 35",Красносельский,ЦАО
ВТБ,55.63772,37.65593,"г. Москва, ул. Кантемировская, д. 47",Царицыно,ЮАО
ВТБ,55.653645,37.648083,"г. Москва, ш. Каширское, д. 26, корп. 2",Москворечье-Сабурово,ЮАО
ВТБ,55.685457,37.570188,"г. Москва, ул. Профсоюзная, д. 12",Академический,ЮЗАО
ВТБ,55.761189,37.572689,"г. Москва, ул. Красная Пресня, д. 11",Пресненский,ЦАО
ВТБ,55.777317,37.662802,"г. Москва, ул. Краснопрудная, д. 18, стр. 1",Красносельский,ЦАО
ВТБ,55.757734,37.407096,"г. Москва, бул. Осенний, д. 7, корп. 1",Крылатское,ЗАО
ВТБ,55.762884,37.623756,"г. Москва, ул. Рождественка, д. 8/15с3",Мещанский,ЦАО
ВТБ,55.803177,37.519195,"г. Москва, просп. Ленинградский, д. 65, стр. 1",Сокол,САО
ВТБ,55.799353,37.536073,"г. Москва, просп. Ленинградский, д. 60, корп. 2",Аэропорт,САО
ВТБ,55.700131,37.85273,"г. Москва, просп. Лермонтовский, д. 10, корп. 1",Выхино-Жулебино,ЮВАО
ВТБ,55.69038,37.550522,"г. Москва, просп. Ленинский, д. 69",Гагаринский,ЮЗАО
ВТБ,55.762978,37.628798,"г. Москва, ул. Большая Лубянка, д. 16, стр. 1",Мещанский,ЦАО
ВТБ,55.674089,37.760008,"г. Москва, ул. Совхозная, д. 41",Люблино,ЮВАО
ВТБ,55.650395,37.745896,"г. Москва, ул. Люблинская, д. 165, корп. 2",Марьино,ЮВАО
ВТБ,55.771633,37.592877,"г. Москва, ул. 1-я Тверская-Ямская, д. 7",Тверской,ЦАО
ВТБ,55.887956,37.662745,"г. Москва, ул. Широкая, д. 13а",Северное Медведково,СВАО
ВТБ,55.847181,37.362243,"г. Москва, ул. Митинская, д. 36, корп. 2",Митино,СЗАО
ВТБ,55.848099,37.355274,"г. Москва, ул. Митинская, д. 35",Митино,СЗАО
ВТБ,55.698306,37.497974,"г. Москва, просп. Мичуринский, д. 34",Раменки,ЗАО
ВТБ,55.741432,37.417642,"г. Москва, ул. Ярцевская, д. 32",Кунцево,ЗАО
ВТБ,55.709262,37.660913,"г. Москва, ул. Автозаводская, д. 6",Даниловский,ЮАО
ВТБ,55.547956,37.543957,"г. Москва, ул. Веневская, д. 6",Южное Бутово,ЮЗАО
ВТБ,55.653045,37.620567,"г. Москва, ш. Варшавское, д. 87",Нагорный,ЮАО
ВТБ,55.865078,37.661376,"г. Москва, ул. Енисейская, д. 11",Бабушкинский,СВАО
ВТБ,55.772945,37.676645,"г. Москва, ул. Нижняя Красносельская, д. 45/17",Басманный,ЦАО
ВТБ,55.856365,37.494413,"г. Москва, ул. Лавочкина, д. 34",Ховрино,САО
ВТБ,55.792268,37.496533,"г. Москва, ул. Маршала Бирюзова, д. 8, корп. 1",Щукино,СЗАО
ВТБ,55.722545,37.6173,"г. Москва, ул. Мытная, д. 7, стр. 1",Замоскворечье,ЦАО
ВТБ,55.790863,37.63512,"г. Москва, просп. Мира, д. 76, стр. 1",Мещанский,ЦАО
ВТБ,55.663752,37.605584,"г. Москва, просп. Нахимовский, д. 11, корп. 1",Зюзино,ЮЗАО
ВТБ,55.596437,37.599831,"г. Москва, ул. Академика Янгеля, д. 2",Чертаново Южное,ЮАО
ВТБ,55.835704,37.490356,"г. Москва, ул. Адмирала Макарова, д. 6, стр. 13",Войковский,САО
ВТБ,55.764632,37.620245,"г. Москва, ул. Неглинная, д. 14, стр. 1а",Мещанский,ЦАО
ВТБ,55.753395,37.577177,"г. Москва, ул. Новый Арбат, д. 36/9",Арбат,ЦАО
ВТБ,55.750818,37.816108,"г. Москва, просп. Свободный, д. 20",Новогиреево,ВАО
ВТБ,55.608527,37.535772,"г. Москва, просп. Новоясеневский, д. 9",Ясенево,ЮЗАО
ВТБ,55.752986,37.592554,"г. Москва, ул. Большая Молчановка, д. 17/14, стр. 2",Арбат,ЦАО
ВТБ,55.661325,37.510461,"г. Москва, просп. Ленинский, д. 111, корп. 1",Обручевский,ЮЗАО
ВТБ,55.679359,37.468394,"г. Москва, просп. Мичуринский, Олимпийская деревня, д. 1, корп. 4",Тропарёво-Никулино,ЗАО
ВТБ,55.611503,37.719635,"г. Москва, бул. Ореховый, д. 13",Орехово-Борисово Северное,ЮАО
ВТБ,55.774682,37.604233,"г. Москва, ул. Долгоруковская, д. 2",Тверской,ЦАО
ВТБ,55.742065,37.599958,"г. Москва, ул. Остоженка, д. 11",Хамовники,ЦАО
ВТБ,55.862536,37.608902,"г. Москва, ул. Декабристов, д. 20, корп. 2",Отрадное,СВАО
ВТБ,55.749775,37.786057,"г. Москва, ул. 2-я Владимирская, д. 45",Новогиреево,ВАО
ВТБ,55.863491,37.433454,"г. Москва, ул. Планерная, д. 7, корп. 1",Северное Тушино,СЗАО
ВТБ,55.707454,37.577679,"г. Москва, просп. Ленинский, д. 34/1",Гагаринский,ЮЗАО
ВТБ,55.760488,37.64994,"г. Москва, ул. Покровка, д. 28, стр. 1",Басманный,ЦАО
ВТБ,55.733585,37.61911,"г. Москва, ул. Большая Полянка, д. 30",Якиманка,ЦАО
ВТБ,55.797359,37.725202,"г. Москва, ул. Большая Черкизовская, д. 12, корп. 1",Преображенское,ВАО
ВТБ,55.777642,37.465406,"г. Москва, просп. Маршала Жукова, д. 48, корп. 1",Хорошёво-Мнёвники,СЗАО
ВТБ,55.679138,37.565317,"г. Москва, ул. Профсоюзная, д. 15",Академический,ЮЗАО
ВТБ,55.746444,37.682796,"г. Москва, бул. Энтузиастов, д. 2",Таганский,ЦАО
ВТБ,55.746401,37.421589,"г. Москва, ш. Рублевское, д. 28, корп. 1",Крылатское,ЗАО
ВТБ,55.789386,37.678345,"г. Москва, пл. Сокольническая, д. 4, корп. 1—2",Сокольники,ВАО
ВТБ,55.718437,37.788035,"г. Москва, просп. Рязанский, д. 71, корп. 1",Рязанский,ЮВАО
ВТБ,55.715735,37.797557,"г. Москва, ул. Академика Скрябина, д. 1/58, стр. 1",Выхино-Жулебино,ЮВАО
ВТБ,55.795969,37.583417,"г. Москва, ул. Бутырская, д. 11",Савёловский,САО
ВТБ,55.770436,37.599118,"г. Москва, ул. Садовая-Триумфальная, д. 4/10, стр. 1",Тверской,ЦАО
ВТБ,55.855142,37.653297,"г. Москва, ул. Снежная, д. 26",Свиблово,СВАО
ВТБ,55.829562,37.45136,"г. Москва, ул. Свободы, д. 13/2, стр. 1а",Покровское-Стрешнево,СЗАО
ВТБ,55.783615,37.721844,"г. Москва, пл. Семеновская, д. 7, корп. 17",Соколиная Гора,ВАО
ВТБ,55.805538,37.508333,"г. Москва, просп. Ленинградский, д. 77, корп. 2",Сокол,САО
ВТБ,55.650733,37.394831,"г. Москва, ул. Богданова, д. 50",Солнцево,ЗАО
ВТБ,55.807436,37.406286,"г. Москва, ул. Маршала Катукова, д. 16",Строгино,СЗАО
ВТБ,55.771887,37.636313,"г. Москва, пл. Большая Сухаревская, д. 14/7",Красносельский,ЦАО
ВТБ,55.762144,37.609507,"г. Москва, ул. Тверская, д. 8, стр. 1",Тверской,ЦАО
ВТБ,55.759667,37.612103,"г. Москва, ул. Тверская, д. 6/1, стр. 7",Тверской,ЦАО
ВТБ,55.707839,37.72993,"г. Москва, ул. Люблинская, д. 4, корп. 1",Текстильщики,ЮВАО
ВТБ,55.818397,37.573537,"г. Москва, ш. Дмитровское, д. 13а",Тимирязевский,САО
ВТБ,55.709402,37.620861,"г. Москва, ул. Большая Тульская, д. 2",Даниловский,ЮАО
ВТБ,55.764456,37.555661,"г. Москва, ш. Звенигородское, д. 18/20",Пресненский,ЦАО
ВТБ,55.69367,37.532364,"г. Москва, просп. Ломоносовский, д. 25, корп. 1",Раменки,ЗАО
ВТБ,55.719791,37.57125,"г. Москва, просп. Комсомольский, д. 48",Хамовники,ЦАО
ВТБ,55.72095,37.577547,"г. Москва, ул. 3-я Фрунзенская, д. 9",Хамовники,ЦАО
ВТБ,55.851733,37.441034,"г. Москва, бул. Химкинский, д. 16, корп. 1",Северное Тушино,СЗАО
ВТБ,55.788849,37.466429,"г. Москва, ул. Генерала Глаголева, д. 30, корп. 2",Хорошёво-Мнёвники,СЗАО
ВТБ,55.762285,37.624396,"г. Москва, ул. Кузнецкий Мост, д. 17, стр. 1",Мещанский,ЦАО
ВТБ,55.670002,37.553142,"г. Москва, ул. Профсоюзная, д. 56",Обручевский,ЮЗАО
ВТБ,55.797184,37.71898,"г. Москва, ул. Большая Черкизовская, д. 5а",Преображенское,ВАО
ВТБ,55.639661,37.607492,"г. Москва, ул. Чертановская, д. 1в, корп. 1",Чертаново Северное,ЮАО
ВТБ,55.758851,37.752273,"г. Москва, ш. Энтузиастов, д. 31, стр. 39",Соколиная Гора,ВАО
ВТБ,55.810467,37.794762,"г. Москва, ш. Щелковское, д. 69",Гольяново,ВАО
ВТБ,55.663656,37.484617,"г. Москва, просп. Вернадского, д. 105, корп. 3",Тропарёво-Никулино,ЗАО
ВТБ,55.684503,37.621947,"г. Москва, ш. Варшавское, д. 26",Нагорный,ЮАО
ВТБ,55.622519,37.60623,"г. Москва, ул. Кировоградская, д. 14",Чертаново Северное,ЮАО
ВТБ,55.736692,37.664537,"г. Москва, ул. Марксистская, д. 5, стр. 1",Таганский,ЦАО
ВТБ,55.766015,37.63807,"г. Москва, ул. Мясницкая, д. 35",Красносельский,ЦАО
ВТБ,55.783429,37.596971,"г. Москва, ул. Новослободская, д. 41",Тверской,ЦАО
ВТБ,55.731969,37.637232,"г. Москва, ул. Бахрушина, д. 32, стр. 1",Замоскворечье,ЦАО
ВТБ,55.735832,37.520185,"г. Москва, пл. Победы, д. 1 Б",Дорогомилово,ЗАО
ВЭБ,55.753313,37.606413,"г. Москва, ул. Воздвиженка, д. 10",Арбат,ЦАО
Газпромбанк,55.659336,37.558602,"г. Москва, ул. Наметкина, д. 16, корп. 1",Черёмушки,ЮЗАО
Газпромбанк,55.787367,37.677765,"г. Москва, ул. Русаковская, д. 29",Сокольники,ВАО
Газпромбанк,55.794408,37.49228,"г. Москва, ул. Маршала Бирюзова, д. 16",Щукино,СЗАО
Газпромбанк,55.818619,37.573632,"г. Москва, ш. Дмитровское, д. 13а",Тимирязевский,САО
Газпромбанк,55.749431,37.537035,"г. Москва, наб. Пресненская, д. 12",Пресненский,ЦАО
Газпромбанк,55.70256,37.848335,"г. Москва, просп. Лермонтовский, д. 6",Выхино-Жулебино,ЮВАО
Газпромбанк,55.547097,37.552858,"г. Москва, бул. Адмирала Ушакова, д. 5",Южное Бутово,ЮЗАО
Газпромбанк,55.74484,37.567166,"г. Москва, пл. Киевского вокзала, д. 2",Дорогомилово,ЗАО
Газпромбанк,55.693404,37.556044,"г. Москва, просп. Ленинский, д. 63/2, корп. 1",Гагаринский,ЮЗАО
Газпромбанк,55.856414,37.653612,"г. Москва, ул. Снежная, д. 27",Свиблово,СВАО
Газпромбанк,55.739981,37.637474,"г. Москва, наб. Озерковская, д. 24",Замоскворечье,ЦАО
Газпромбанк,55.707216,37.658818,"г. Москва, ул. ул. Автозаводская, д. 9/1",Даниловский,ЮАО
Газпромбанк,55.741305,37.417583,"г. Москва, ул. Ярцевская, д. 32",Кунцево,ЗАО
Газпромбанк,55.849392,37.441496,"г. Москва, бул. Химкинский, д. 23",Южное Тушино,СЗАО
Газпромбанк,55.818465,37.497431,"г. Москва, ш. Ленинградское, д. 13, корп. 1",Войковский,САО
Газпромбанк,55.800882,37.532606,"г. Москва, просп. Ленинградский, д. 62",Аэропорт,САО
Газпромбанк,55.74528,37.581587,"г. Москва, ул. Смоленская, д. 3",Хамовники,ЦАО
Газпромбанк,55.650505,37.745924,"г. Москва, ул. Люблинская, д. 165",Марьино,ЮВАО
Газпромбанк,55.655262,37.618955,"г. Москва, ш. Варшавское, д. 74, корп. 2",Нагорный,ЮАО
Газпромбанк,55.739911,37.658763,"г. Москва, ул. Марксистская, д. 1, корп. 1",Таганский,ЦАО
Газпромбанк,55.782138,37.598729,"г. Москва, ул. Новослободская, д. 20",Тверской,ЦАО
Газпромбанк,55.782766,37.718051,"г. Москва, пл. Семеновская, д. 1а",Соколиная Гора,ВАО
Газпромбанк,55.71724,37.677692,"г. Москва, ул. Шарикоподшипниковская, д. 13, стр. 1",Южнопортовый,ЮВАО
Газпромбанк,55.778875,37.665497,"г. Москва, ул. Краснопрудная, д. 22—24",Красносельский,ЦАО
Газпромбанк,55.718372,37.788345,"г. Москва, просп. Рязанский, д. 71, корп. 1",Рязанский,ЮВАО
Газпромбанк,55.808851,37.461487,"г. Москва, ул. Маршала Василевского, д. 17",Щукино,СЗАО
Газпромбанк,55.643604,37.524934,"г. Москва, ул. Профсоюзная, д. 104/47",Коньково,ЮЗАО
Газпромбанк,55.855078,37.478082,"г. Москва, ул. Фестивальная, д. 2 Б",Левобережный,САО
Газпромбанк,55.673792,37.760433,"г. Москва, ул. Совхозная, д. 39",Люблино,ЮВАО
Газпромбанк,55.812078,37.799214,"г. Москва, ул. Уральская, д. 4г",Гольяново,ВАО
Газпромбанк,55.846229,37.362799,"г. Москва, ул. Митинская, д. 36",Митино,СЗАО
Газпромбанк,55.611119,37.606622,"г. Москва, ул. Красного Маяка, д. 2 Б",Чертаново Центральное,ЮАО
Газпромбанк,55.862137,37.604371,"г. Москва, ул. Хачатуряна, д. 20",Отрадное,СВАО
Газпромбанк,55.733735,37.613181,"г. Москва, ул. Большая Якиманка, д. 39",Якиманка,ЦАО
Газпромбанк,55.677567,37.509515,"г. Москва, просп. Вернадского, д. 37, корп. 2",Проспект Вернадского,ЗАО
Газпромбанк,55.746868,37.626145,"г. Москва, ул. Балчуг, д. 7",Замоскворечье,ЦАО
Газпромбанк,55.731348,37.665983,"г. Москва, пер. 3-й Крутицкий, д. 11",Южнопортовый,ЮВАО
Газпромбанк,55.803638,37.636895,"г. Москва, просп. Мира, д. 108",Алексеевский,СВАО
Газпромбанк,55.761538,37.569896,"г. Москва, ул. Красная Пресня, д. 21",Пресненский,ЦАО
Газпромбанк,55.640189,37.62285,"г. Москва, ш. Варшавское, д. 95, корп. 1",Чертаново Северное,ЮАО
Газпромбанк,55.708866,37.602925,"г. Москва, 2-й Верхний Михайловский пр-д, д. 9, стр. 11",Донской,ЮАО
Газпромбанк,55.66845,37.559858,"г. Москва, ул. Гарибальди, д. 36",Черёмушки,ЮЗАО
Газпромбанк,55.768956,37.645679,"г. Москва, ул. Мясницкая, д. 48",Красносельский,ЦАО
Газпромбанк,55.729004,37.618383,"г. Москва, ул. Коровий Вал, д. 9, стр. 2",Якиманка,ЦАО
Газпромбанк,55.782333,37.574093,"г. Москва, просп. Ленинградский, д. 24",Беговой,САО
Газпромбанк,55.69133,37.580646,"г. Москва, ул. Гримау, д. 6",Академический,ЮЗАО
Газпромбанк,55.738106,37.528607,"г. Москва, просп. Кутузовский, д. 43",Дорогомилово,ЗАО
Газпромбанк,55.702564,37.5093,"г. Москва, просп. Мичуринский, д. 7",Раменки,ЗАО
Газпромбанк,55.768338,37.622921,"г. Москва, бул. Цветной, д. 2",Мещанский,ЦАО
Газпромбанк,55.739535,37.596583,"г. Москва, ул. Остоженка, д. 25",Хамовники,ЦАО
Газпромбанк,55.758926,37.657215,"г. Москва, ул. Земляной Вал, д. 24/30, стр. 1",Басманный,ЦАО
Газэнергобанк,55.761421,37.650316,"г. Москва, ул. Чаплыгина, д. 17",Басманный,ЦАО
Гарант-Инвест,55.768545,37.619127,"Москва, пер. 1-й Колобовский, д. 23",Тверской,ЦАО
Генбанк,55.742285,37.673291,"г. Москва, ул. Малая Андроньевская, д. 20/8, стр. 1—1а",Таганский,ЦАО
Голдман Сакс Банк,55.768346,37.590536,"г. Москва, ул. Гашека, д. 6",Пресненский,ЦАО
Гута-Банк,55.772947,37.650566,"г. Москва, пер. Орликов, д. 5, стр. 3",Красносельский,ЦАО
Далена Банк,55.753214,37.723026,"г. Москва, ш. Энтузиастов, д. 17, стр. 1",Соколиная Гора,ВАО
Далена Банк,55.74233,37.58364,"г. Москва, бул. Смоленский, д. 17, стр. 1",Хамовники,ЦАО
Далена Банк,55.849819,37.670082,"г. Москва, ул. Енисейская, д. 1, стр. 1",Свиблово,СВАО
Далена Банк,55.76007,37.763324,"г. Москва, ш. Энтузиастов, д. 56, стр. 32",Перово,ВАО
Далена Банк,55.745558,37.659382,"г. Москва, пер. Пестовский, д. 5",Таганский,ЦАО
Далена Банк,55.791455,37.52147,"г. Москва, Березовой Рощи пр-д, д. 12",Хорошёвский,САО
Денизбанк Москва,55.761347,37.551712,"г. Москва, ул. 2-я Звенигородская, д. 13, стр. 42",Пресненский,ЦАО
Держава,55.735936,37.569539,"г. Москва, пер. Большой Саввинский, д. 2, стр. 9",Хамовники,ЦАО
Джей энд Ти Банк,55.745045,37.622092,"г. Москва, наб. Кадашевская, д. 26",Якиманка,ЦАО
Джей энд Ти Банк,55.739915,37.662717,"г. Москва, ул. Таганская, д. 26, стр. 1",Таганский,ЦАО
Дж. П. Морган Банк,55.778368,37.585915,"г. Москва, ул. Бутырский Вал, д. 10",Тверской,ЦАО
Дойче Банк,55.77784,37.586854,"г. Москва, ул. Лесная, д. 5",Тверской,ЦАО
ДОМ.РФ,55.753301,37.606263,"г. Москва, ул. Воздвиженка, д. 10",Арбат,ЦАО
Дружба,55.740173,37.654933,"г. Москва, ул. Воронцовская, д. 4, стр. 1",Таганский,ЦАО
Евроальянс,55.762163,37.626982,"г. Москва, ул. Кузнецкий Мост, д. 21/5",Мещанский,ЦАО
Еврофинанс Моснарбанк,55.751441,37.577372,"г. Москва, ул. Новый Арбат, д. 29",Арбат,ЦАО
Еком Банк,55.746702,37.537273,"г. Москва, наб. Пресненская, д. 10",Пресненский,ЦАО
Живаго Банк,55.777616,37.66097,"г. Москва, ул. Краснопрудная, д. 3—5, стр. 1",Красносельский,ЦАО
ЖК City Bay,55.830133,37.397219,"г. Москва, ш. Волоколамское, д. 97",Покровское-Стрешнево,СЗАО
ЖК Symphony 34,55.803502,37.54999,"г. Москва, 4-я ул. 8 Марта, д. 6а",Аэропорт,САО
ЖК Метрополия,55.724114,37.608428,"г. Москва, ул. Донская, д. 13",Якиманка,ЦАО
Зираат Банк,55.73906,37.658736,"г. Москва, ул. Марксистская, д. 16",Таганский,ЦАО
ИК Банк,55.782077,37.576045,"г. Москва, просп. Ленинградский, д. 20, стр. 1",Беговой,САО
Инбанк,55.738776,37.631637,"г. Москва, пер. Старый Толмачевский, д. 5",Замоскворечье,ЦАО
Инвестторгбанк,55.723608,37.636748,"г. Москва, ул. Дубининская, д. 45",Замоскворечье,ЦАО
Инвестторгбанк,55.799284,37.52704,"г. Москва, ул. Острякова, д. 3",Хорошёвский,САО
Инвестторгбанк,55.773322,37.631936,"г. Москва, просп. Мира, д. 3, корп. 1",Мещанский,ЦАО
Инвестторгбанк,55.659165,37.746421,"г. Москва, ул. Перерва, д. 39",Марьино,ЮВАО
Инвестторгбанк,55.791326,37.490561,"г. Москва, ул. Народного Ополчения, д. 44, корп. 1",Щукино,СЗАО
Инвестторгбанк,55.694417,37.532954,"г. Москва, просп. Ломоносовский, д. 25, корп. 1",Раменки,ЗАО
ИНГ Банк,55.780142,37.605741,"г. Москва, ул. Краснопролетарская, д. 36",Тверской,ЦАО
Индустриальный Сберегательный Банк,55.76228,37.616137,"г. Москва, пер. Дмитровский, д. 7",Тверской,ЦАО
Индустриальный Сберегательный Банк,55.741267,37.502663,"г. Москва, ул. Барклая, д. 8",Филёвский Парк,ЗАО
Интерпрогрессбанк,55.661317,37.626951,"г. Москва, ш. Старокаширское, д. 2, корп. 1, стр. 1",Нагатино-Садовники,ЮАО
Интерпрогрессбанк,55.788359,37.558092,"г. Москва, просп. Ленинградский, д. 33а",Беговой,САО
Интерпрогрессбанк,55.652845,37.754362,"г. Москва, ул. Новомарьинская, д. 12/12, корп. 1",Марьино,ЮВАО
Интерпрогрессбанк,55.651344,37.482495,"г. Москва, просп. Ленинский, д. 158",Тропарёво-Никулино,ЗАО
Интерпрогрессбанк,55.672113,37.631649,"г. Москва, ш. Каширское, д. 3, корп. 2, стр. 9",Нагатино-Садовники,ЮАО
Интерпрогрессбанк,55.691581,37.538166,"г. Москва, просп. Ломоносовский, д. 23",Гагаринский,ЮЗАО
Интерпрогрессбанк,55.777162,37.632826,"г. Москва, просп. Мира, д. 24, стр. 1",Мещанский,ЦАО
Интерпрогрессбанк,55.791819,37.748587,"г. Москва, ш. Измайловское, д. 71, корп. 4 Г-Д",Измайлово,ВАО
Интерпрогрессбанк,55.7899,37.748928,"г. Москва, ш. Измайловское, д. 71, корп. А",Измайлово,ВАО
Интерпрогрессбанк,55.650312,37.665228,"г. Москва, ш. Каширское, д. 31, стр. 26",Москворечье-Сабурово,ЮАО
Ишбанк,55.662385,37.555638,"г. Москва, ул. Наметкина, д. 13д",Черёмушки,ЮЗАО
Камкомбанк,55.68088,37.514928,"г. Москва, просп. Вернадского, д. 33",Ломоносовский,ЮЗАО
Капитал,55.704844,37.59782,"г. Москва, 5-й Донской пр-д, д. 21 Б, стр. 10",Донской,ЮАО
КИВИ Банк,55.637321,37.597683,"г. Москва, мкр. Северное Чертаново, д. 1а, корп. 1",Чертаново Северное,ЮАО
КИВИ Банк,55.745306,37.595735,"г. Москва, пер. Староконюшенный, д. 10",Хамовники,ЦАО
Коммерцбанк (Евразия),55.744104,37.619803,"г. Москва, наб. Кадашевская, д. 14, корп. 2",Якиманка,ЦАО
Коммерческий Индо Банк,55.739173,37.658697,"г. Москва, ул. Марксистская, д. 16",Таганский,ЦАО
Космос,55.759932,37.543377,"г. Москва, бул. Красногвардейский, д. 7, стр. 1",Пресненский,ЦАО
Космос,55.761115,37.598436,"г. Москва, ул. Большая Бронная, д. 7",Пресненский,ЦАО
Кошелев-Банк,55.707976,37.62061,"г. Москва, ул. Большая Тульская, д. 2",Даниловский,ЮАО
Кошелев-Банк,55.766868,37.633126,"г. Москва, бул. Сретенский, д. 5",Красносельский,ЦАО
Креди Агриколь КИБ,55.75956,37.63184,"г. Москва, пер. Большой Златоустинский, д. 1, стр. 6",Басманный,ЦАО
Кредит Европа Банк,55.778812,37.623054,"г. Москва, просп. Олимпийский, д. 14",Мещанский,ЦАО
Кредит Европа Банк,55.869799,37.661053,"г. Москва, ул. Менжинского, д. 23, корп. 1",Бабушкинский,СВАО
Кредит Европа Банк,55.780408,37.591845,"г. Москва, ул. Лесная, д. 20, стр. 1",Тверской,ЦАО
Кредит Европа Банк,55.855613,37.476659,"г. Москва, ул. Фестивальная, д. 13, корп. 1",Левобережный,САО
Кредит Европа Банк,55.89704,37.588268,"г. Москва, ш. Алтуфьевское, д. 86",Бибирево,СВАО
Кредит Европа Банк,55.785466,37.665826,"г. Москва, ул. Верхняя Красносельская, д. 3а",Красносельский,ЦАО
Кредит Европа Банк,55.640777,37.531315,"г. Москва, ул. Миклухо-Маклая, д. 32а",Коньково,ЮЗАО
Кредит Европа Банк,55.660867,37.74946,"г. Москва, ул. Перерва, д. 49",Марьино,ЮВАО
Кредит Европа Банк,55.744511,37.566093,"г. Москва, пл. Киевского Вокзала, д. 2",Дорогомилово,ЗАО
Кредит Европа Банк,55.7041,37.771449,"г. Москва, просп. Волгоградский, д. 94, корп. 1",Кузьминки,ЮВАО
Кредит Европа Банк,55.687188,37.545186,"г. Москва, просп. Ленинский, д. 75/9",Гагаринский,ЮЗАО
Кредит Европа Банк,55.746654,37.536729,"г. Москва, наб. Пресненская, д. 10",Пресненский,ЦАО
Кредит Европа Банк,55.731473,37.855583,"г. Москва, ул. Николая Старостина, д. 11",Новокосино,ВАО
Кредит Европа Банк,55.778825,37.622979,"г. Москва, просп. Олимпийский, д. 14",Мещанский,ЦАО
Кредит Европа Банк,55.730387,37.635781,"г. Москва, пл. Павелецкая, д. 2, стр. 2",Замоскворечье,ЦАО
Кредит Европа Банк,55.609652,37.605098,"г. Москва, ул. Кировоградская, д. 15",Чертаново Центральное,ЮАО
Кредит Европа Банк,55.781698,37.722853,"г. Москва ул. Вельяминовская, д. 6",Соколиная Гора,ВАО
Кредит Европа Банк,55.744445,37.582833,"г. Москва, пл. Смоленская-Сенная, д. 23/25",Хамовники,ЦАО
Кредит Урал Банк,55.722503,37.560998,"г. Москва, ул. Усачева, д. 35, стр. 1",Хамовники,ЦАО
Крокус-Банк,55.783192,37.51366,"г. Москва, ул. Куусинена, д. 11, корп. 3",Хорошёвский,САО
Кубань Кредит,55.760224,37.587029,"г. Москва, пер. Вспольный, д. 5, стр. 2",Пресненский,ЦАО
КЭБ ЭйчЭнБи Банк,55.752141,37.53268,"г. Москва, ул. Тестовская, д. 10",Пресненский,ЦАО
Ланта-Банк,55.738755,37.63109,"г. Москва, ул. Новокузнецкая, д. 9, стр. 2",Замоскворечье,ЦАО
Ланта-Банк,55.748094,37.599213,"г. Москва, бул. Гоголевский, д. 23",Арбат,ЦАО
Ланта-Банк,55.769857,37.667198,"г. Москва, ул. Новая Басманная, д. 35, стр. 1",Басманный,ЦАО
Локо-Банк,55.796572,37.536787,"г. Москва, просп. Ленинградский, д. 39, стр. 80",Хорошёвский,САО
Локо-Банк,55.781854,37.707193,"г. Москва, ул. Большая Семеновская, д. 28",Соколиная Гора,ВАО
Локо-Банк,55.799226,37.529653,"г. Москва, ул. Викторенко, д. 5, стр. 1",Хорошёвский,САО
Локо-Банк,55.870357,37.662016,"г. Москва, ул. Менжинского, д. 38, корп. 1, стр. 2",Бабушкинский,СВАО
Локо-Банк,55.642089,37.524449,"г. Москва, ул. Профсоюзная, д. 104",Коньково,ЮЗАО
Локо-Банк,55.767173,37.695853,"г. Москва, ул. Госпитальная, д. 14",Лефортово,ЮВАО
Локо-Банк,55.649749,37.745778,"г. Москва, ул. Люблинская, д. 165, корп. 2",Марьино,ЮВАО
Локо-Банк,55.752977,37.575446,"г. Москва, ул. Новый Арбат, д. 36, стр. 3",Арбат,ЦАО
Локо-Банк,55.7385,37.413331,"г. Москва, ул. Ярцевская, д. 22, стр. 1",Кунцево,ЗАО
Локо-Банк,55.740238,37.658257,"г. Москва, ул. Марксистская, д. 1, корп. 1",Таганский,ЦАО
Максима,55.776711,37.729763,"г. Москва, ул. Вольная, д. 13",Соколиная Гора,ВАО
МБА-Москва,55.757182,37.568695,"г. Москва, ул. Рочдельская, д. 14, стр. 1",Пресненский,ЦАО
МБА-Москва,55.761441,37.610293,"г. Москва, ул. Тверская, д. 6, стр. 2",Тверской,ЦАО
Международный Финансовый Клуб,55.747127,37.536218,"г. Москва, наб. Пресненская, д. 10",Пресненский,ЦАО
Международный Финансовый Клуб,55.762572,37.652187,"г. Москва, ул. Покровка, д. 43, стр. 1",Басманный,ЦАО
Международный Финансовый Клуб,55.760507,37.599637,"г. Москва, бул. Тверской, д. 13, стр. 1",Пресненский,ЦАО
Мерседес-Бенц Банк Рус,55.79558,37.54109,"г. Москва, просп. Ленинградский, д. 39а",Хорошёвский,САО
Металлинвестбанк,55.732973,37.620405,"г. Москва, ул. Большая Полянка, д. 47, стр. 2",Якиманка,ЦАО
Металлинвестбанк,55.752805,37.63362,"г. Москва, пл. Славянская, д. 2/5/4, стр. 3",Таганский,ЦАО
Металлинвестбанк,55.738843,37.638375,"г. Москва, наб. Озерковская, д. 28, стр. 1",Замоскворечье,ЦАО
Металлинвестбанк,55.796348,37.487413,"г. Москва, ул. Маршала Бирюзова, д. 31",Щукино,СЗАО
Металлинвестбанк,55.732806,37.619927,"г. Москва, ул. Большая Полянка, д. 47, стр. 1",Якиманка,ЦАО
Меткомбанк (Каменск-Уральский),55.644122,37.593719,"г. Москва, просп. Балаклавский, д. 28в, стр. Б",Зюзино,ЮЗАО
Мидзухо Банк,55.744118,37.63503,"г. Москва, наб. Овчинниковская, д. 20, стр. 1",Замоскворечье,ЦАО
Мир Бизнес Банк,55.740059,37.589048,"г. Москва, ул. Пречистенка, д. 36, стр. 1",Хамовники,ЦАО
Мир Привилегий,55.755471,37.589392,"г. Москва, ул. Поварская, д. 23, стр. 4",Арбат,ЦАО
Модульбанк,55.777555,37.649454,"г. Москва, Каланчевская ул., 16, стр. 1",Красносельский,ЦАО
Модульбанк,55.804936,37.589922,"г. Москва, ул. Новодмитровская, д. 2, корп. 1",Бутырский,СВАО
Морской Банк,55.704038,37.626029,"г. Москва, ш. Варшавское, д. 1а",Донской,ЮАО
Москва-Сити,55.725884,37.64952,"г. Москва, пер. 2-й Кожевнический, д. 7",Даниловский,ЮАО
Москва-Сити,55.762924,37.653,"г. Москва, ул. Покровка, д. 45, стр. 1",Басманный,ЦАО
Московский Индустриальный Банк,55.71,37.60087,"г. Москва, ул. Орджоникидзе, д. 5",Донской,ЮАО
Московский Индустриальный Банк,55.826874,37.515755,"г. Москва, ул. Клары Цеткин, д. 20",Коптево,САО
Московский Индустриальный Банк,55.715664,37.79303,"г. Москва, ул. 1-я Новокузьминская, д. 21, корп. 2",Рязанский,ЮВАО
Московский Индустриальный Банк,55.747873,37.576941,"г. Москва, наб. Смоленская, д. 2а",Арбат,ЦАО
Московский Индустриальный Банк,55.787847,37.59207,"г. Москва, ул. Новослободская, д. 57/65",Тверской,ЦАО
Московский Индустриальный Банк,55.799635,37.714844,"г. Москва, ул. Хромова, д. 1",Преображенское,ВАО
Московский Индустриальный Банк,55.730411,37.414426,"г. Москва, ул. Кунцевская, д. 13/6",Кунцево,ЗАО
Московский Индустриальный Банк,55.80275,37.515022,"г. Москва, ул. Песчаная, д. 4а",Сокол,САО
Московский Индустриальный Банк,55.677496,37.74437,"г. Москва, ул. Краснодарская, д. 13, стр. 2",Люблино,ЮВАО
Московский Индустриальный Банк,55.730827,37.625612,"г. Москва, ул. Пятницкая, д. 76",Замоскворечье,ЦАО
Московский Индустриальный Банк,55.783992,37.742003,"г. Москва, ул. Щербаковская, д. 57/20",Соколиная Гора,ВАО
Московский Индустриальный Банк,55.761523,37.785463,"г. Москва, ул. 3-я Владимирская, д. 8, корп. 1",Перово,ВАО
Московский Индустриальный Банк,55.705486,37.666526,"г. Москва, ул. Сайкина, д. 6/5",Даниловский,ЮАО
Московский Индустриальный Банк,55.737401,37.67915,"г. Москва, ул. Малая Калитниковская, д. 7",Таганский,ЦАО
Московский Индустриальный Банк,55.857912,37.656224,"г. Москва, ул. Кольская, д. 2, корп. 6",Бабушкинский,СВАО
Московский Индустриальный Банк,55.84137,37.455726,"г. Москва, ул. Свободы, д. 30",Южное Тушино,СЗАО
Московский Коммерческий Банк,55.726372,37.585112,"г. Москва, ул. 1-я Фрунзенская, д. 5",Хамовники,ЦАО
Московский Кредитный Банк,55.768277,37.632711,"г. Москва, пер. Луков, д. 2, стр. 1",Красносельский,ЦАО
Московский Кредитный Банк,55.657474,37.497707,"г. Москва, просп. Ленинский, д. 146",Тропарёво-Никулино,ЗАО
Московский Кредитный Банк,55.830659,37.515882,"г. Москва, ул. Коптевская, д. 69а, стр. 2",Коптево,САО
Московский Кредитный Банк,55.886711,37.522792,"г. Москва, ул. Клязьминская, д. 5",Дмитровский,САО
Московский Кредитный Банк,55.706289,37.623941,"г. Москва, пер. Холодильный, д. 6",Даниловский,ЮАО
Московский Кредитный Банк,55.664756,37.4235,"г. Москва, ул. Домостроительная, д. 4, стр. 1",Солнцево,ЗАО
Московский Кредитный Банк,55.728457,37.677304,"г. Москва, просп. Волгоградский, д. 18, стр. 1",Таганский,ЦАО
Московский Кредитный Банк,55.653172,37.515461,"г. Москва, ул. Академика Волгина, д. 6а, стр. 3",Обручевский,ЮЗАО
Московский Кредитный Банк,55.768284,37.632709,"г. Москва, пер. Луков, д. 2, стр. 1",Красносельский,ЦАО
Московский Кредитный Банк,55.795449,37.492842,"г. Москва, ул. Маршала Соколовского, д. 1",Щукино,СЗАО
Московский Кредитный Банк,55.708552,37.659897,"г. Москва, ул. Автозаводская, д. 8",Даниловский,ЮАО
Московский Кредитный Банк,55.596388,37.599887,"г. Москва, ул. Академика Янгеля, д. 2",Чертаново Южное,ЮАО
Московский Кредитный Банк,55.68456,37.570782,"г. Москва, ул. Профсоюзная, д. 5/9",Академический,ЮЗАО
Московский Кредитный Банк,55.894326,37.588231,"г. Москва, ш. Алтуфьевское, д. 80",Бибирево,СВАО
Московский Кредитный Банк,55.869017,37.666047,"г. Москва, ул. Менжинского, д. 21",Бабушкинский,СВАО
Московский Кредитный Банк,55.744772,37.498838,"г. Москва, ул. Барклая, д. 12",Филёвский Парк,ЗАО
Московский Кредитный Банк,55.773029,37.677122,"г. Москва, ул. Нижняя Красносельская, д. 45/17, стр. 1",Басманный,ЦАО
Московский Кредитный Банк,55.643571,37.524548,"г. Москва, ул. Миклухо-Маклая, д. 47а",Коньково,ЮЗАО
Московский Кредитный Банк,55.657834,37.747435,"г. Москва, ул. Перерва, д. 56/2",Марьино,ЮВАО
Московский Кредитный Банк,55.826032,37.647519,"г. Москва, просп. Мира, д. 182",Алексеевский,СВАО
Московский Кредитный Банк,55.818899,37.497017,"г. Москва, ш. Ленинградское, д. 13, корп. 1",Войковский,САО
Московский Кредитный Банк,55.681148,37.852123,"г. Москва, ул. Генерала Кузнецова, д. 27, корп. 1",Выхино-Жулебино,ЮВАО
Московский Кредитный Банк,55.791001,37.772954,"г. Москва, ул. Первомайская, д. 5",Измайлово,ВАО
Московский Кредитный Банк,55.635114,37.658014,"г. Москва, просп. Пролетарский, д. 29",Царицыно,ЮАО
Московский Кредитный Банк,55.680876,37.662778,"г. Москва, просп. Андропова, д. 26",Нагатино-Садовники,ЮАО
Московский Кредитный Банк,55.614561,37.743367,"г. Москва, бул. Ореховый, д. 45, корп. 1",Зябликово,ЮАО
Московский Кредитный Банк,55.760511,37.408481,"г. Москва, бул. Осенний, д. 16, корп. 1",Крылатское,ЗАО
Московский Кредитный Банк,55.709225,37.764654,"г. Москва, ул. Зеленодольская, д. 36, корп. 2",Кузьминки,ЮВАО
Московский Кредитный Банк,55.750866,37.715424,"г. Москва, ш. Энтузиастов, д. 20, стр. 2",Лефортово,ЮВАО
Московский Кредитный Банк,55.850025,37.355356,"г. Москва, ул. Митинская, д. 48",Митино,СЗАО
Московский Кредитный Банк,55.702764,37.509869,"г. Москва, просп. Мичуринский, д. 7",Раменки,ЗАО
Московский Кредитный Банк,55.718502,37.42015,"г. Москва, ш. Можайское, д. 31, корп. 1",Кунцево,ЗАО
Московский Кредитный Банк,55.752273,37.815225,"г. Москва, просп. Зеленый, д. 77, корп. 1",Новогиреево,ВАО
Московский Кредитный Банк,55.734873,37.854302,"г. Москва, ул. Новокосинская, д. 11, корп. 1",Новокосино,ВАО
Московский Кредитный Банк,55.6413,37.364203,"г. Москва, ул. Новопеределкинская, д. 13а",Ново-Переделкино,ЗАО
Московский Кредитный Банк,55.795506,37.492676,"г. Москва, ул. Маршала Соколовского, д. 1",Щукино,СЗАО
Московский Кредитный Банк,55.861536,37.603765,"г. Москва, ул. Хачатуряна, д. 20",Отрадное,СВАО
Московский Кредитный Банк,55.845635,37.569224,"г. Москва, ш. Дмитровское, д. 50, корп. 1",Тимирязевский,САО
Московский Кредитный Банк,55.794947,37.706454,"г. Москва, ул. Преображенская, д. 2, корп. 1",Преображенское,ВАО
Московский Кредитный Банк,55.763933,37.564114,"г. Москва, ул. Пресненский Вал, д. 4/29",Пресненский,ЦАО
Московский Кредитный Банк,55.854824,37.473601,"г. Москва, ул. Фестивальная, д. 5",Левобережный,САО
Московский Кредитный Банк,55.718537,37.787293,"г. Москва, просп. Рязанский, д. 69",Рязанский,ЮВАО
Московский Кредитный Банк,55.651442,37.598877,"г. Москва, ул. Азовская, д. 25, корп. 1",Зюзино,ЮЗАО
Московский Кредитный Банк,55.805324,37.400873,"г. Москва, бул. Строгинский, д. 7, корп. 1",Строгино,СЗАО
Московский Кредитный Банк,55.850944,37.434037,"г. Москва, бул. Яна Райниса, д. 2, корп. 1",Северное Тушино,СЗАО
Московский Кредитный Банк,55.740468,37.654144,"г. Москва, ул. Воронцовская, д. 2/10, стр. 1",Таганский,ЦАО
Московский Кредитный Банк,55.819806,37.580487,"г. Москва, ул. Яблочкова, д. 21",Бутырский,СВАО
Московский Кредитный Банк,55.663605,37.484437,"г. Москва, просп. Вернадского, д. 105, корп. 3",Тропарёво-Никулино,ЗАО
Московский Кредитный Банк,55.535186,37.527471,"г. Москва, ул. Южнобутовская, д. 69",Южное Бутово,ЮЗАО
Московский Кредитный Банк,55.604056,37.539721,"г. Москва, просп. Новоясеневский, д. 32, корп. 1",Ясенево,ЮЗАО
Московский Кредитный Банк,55.772784,37.621966,"г. Москва, бул. Цветной, д. 32, стр. 1",Мещанский,ЦАО
Московский Кредитный Банк,55.786432,37.508881,"г. Москва, ул. Зорге, д. 17",Хорошёвский,САО
Московский Кредитный Банк,55.732071,37.685122,"г. Москва, Михайловский пр-д, д. 3, стр. 3",Таганский,ЦАО
Московский Кредитный Банк,55.731174,37.685069,"г. Москва, Михайловский пр-д, д. 3, стр. 25",Таганский,ЦАО
Московский Кредитный Банк,55.650232,37.620357,"г. Москва, ш. Варшавское, д. 91а",Нагорный,ЮАО
Московский Кредитный Банк,55.646145,37.672424,"г. Москва, ш. Каширское, д. 39, корп. 1",Москворечье-Сабурово,ЮАО
Московский Кредитный Банк,55.653809,37.776735,"г. Москва, ул. Марьинский Парк, д. 1",Марьино,ЮВАО
Московский Кредитный Банк,55.715768,37.683249,"г. Москва, 2-я ул. Машиностроения, д. 6",Печатники,ЮВАО
Московский Областной Банк,55.781772,37.708966,"г. Москва, ул. Большая Семеновская, д. 32, стр. 1",Соколиная Гора,ВАО
Московский Областной Банк,55.72793,37.62441,"г. Москва, ул. Большая Серпуховская, д. 14/13, стр. 1",Замоскворечье,ЦАО
Москоммерцбанк,55.736697,37.625207,"г. Москва, ул. Малая Ордынка, д. 20, стр. 1",Замоскворечье,ЦАО
Москоммерцбанк,55.763842,37.642839,"г. Москва, пер. Гусятников, д. 13/3",Басманный,ЦАО
МС Банк Рус,55.656191,37.526603,"г. Москва, ул. Обручева, д. 30/1, стр. 2",Коньково,ЮЗАО
МС Банк Рус,55.721214,37.701718,"г. Москва, Остаповский пр-д, д. 4",Нижегородский,ЮВАО
МС Банк Рус,55.721214,37.701718,"г. Москва, Остаповский пр-д, д. 4",Нижегородский,ЮВАО
МС Банк Рус,55.621177,37.616407,"г. Москва, ш. Варшавское, д. 127",Чертаново Центральное,ЮАО
МС Банк Рус,55.767205,37.522998,"г. Москва, 2-й Магистральный тупик, д. 5а, стр. 4",Хорошёвский,САО
МС Банк Рус,55.767205,37.522998,"г. Москва, 2-й Магистральный тупик, д. 5а, стр. 4",Хорошёвский,САО
МС Банк Рус,55.862636,37.582933,"г. Москва, ш. Алтуфьевское, д. 31, корп. 1",Отрадное,СВАО
МС Банк Рус,55.863899,37.463341,"г. Москва, ш. Ленинградское, д. 63 Б",Левобережный,САО
МС Банк Рус,55.861465,37.580454,"г. Москва, ш. Алтуфьевское, д. 31, стр. 1",Отрадное,СВАО
МС Банк Рус,55.656915,37.536023,"г. Москва, ул. Обручева, д. 27, корп.1",Обручевский,ЮЗАО
МС Банк Рус,55.719987,37.776215,"г. Москва, просп. Рязанский, д. 24, корп. 3",Рязанский,ЮВАО
МС Банк Рус,55.76725,37.522915,"г. Москва, 2-й Магистральный тупик, д. 5а, стр. 4",Хорошёвский,САО
МС Банк Рус,55.65683,37.536388,"г. Москва, ул. Обручева, д. 27, корп.1",Обручевский,ЮЗАО
МС Банк Рус,55.859953,37.687848,"г. Москва, ш. Ярославское, д. 31",Ярославский,СВАО
МС Банк Рус,55.861962,37.582532,"г. Москва, ш. Алтуфьевское, д. 31, стр. 8",Отрадное,СВАО
МС Банк Рус,55.859953,37.687848,"г. Москва, ш. Ярославское, д. 31",Ярославский,СВАО
МСП Банк,55.734929,37.64351,"г. Москва, ул. Садовническая, д. 79",Замоскворечье,ЦАО
МТИ Банк,55.72808,37.614908,"г. Москва, ул. Мытная, д. 1, стр. 1",Якиманка,ЦАО
МТИ Банк,55.836489,37.499708,"г. Москва, ул. Выборгская, д. 9а, стр. 1",Войковский,САО
МТИ Банк,55.836031,37.490433,"г. Москва, ул. Адмирала Макарова, д. 6, стр. 13",Войковский,САО
МТИ Банк,55.686113,37.438061,"г. Москва, ш. Очаковское, д. 32",Очаково-Матвеевское,ЗАО
МТС Банк,55.695164,37.662707,"г. Москва, просп. Андропова, д. 18, корп. 1",Даниловский,ЮАО
МТС Банк,55.753103,37.610296,"г. Москва, ул. Воздвиженка, д. 4/7, стр. 2",Арбат,ЦАО
МТС Банк,55.821824,37.57261,"г. Москва, ш. Дмитровское, д. 19, корп. 2",Тимирязевский,САО
МТС Банк,55.711093,37.618309,"г. Москва, ул. Серпуховский Вал, д. 3, корп. 1",Даниловский,ЮАО
МТС Банк,55.621886,37.612184,"г. Москва, ул. Кировоградская, д. 9, корп. 4",Чертаново Северное,ЮАО
МТС Банк,55.750499,37.582477,"г. Москва, бул. Новинский, д. 1/2",Арбат,ЦАО
МТС Банк,55.6918,37.660176,"г. Москва, просп. Андропова, д. 18, корп. 9",Даниловский,ЮАО
МТС Банк,55.7572,37.407056,"г. Москва, бул. Осенний, д. 5, корп. 1",Крылатское,ЗАО
МТС Банк,55.806173,37.637335,"г. Москва, просп. Мира, д. 112",Алексеевский,СВАО
МТС Банк,55.767952,37.605859,"г. Москва, ул. Малая Дмитровка, д. 5/9",Тверской,ЦАО
МТС Банк,55.740813,37.655691,"г. Москва, ул. Воронцовская, д. 1/3, стр. 2",Таганский,ЦАО
МТС Банк,55.767111,37.593024,"г. Москва, ул. Большая Садовая, д. 10",Пресненский,ЦАО
МТС Банк,55.761554,37.632675,"г. Москва, ул. Мясницкая, д. 11",Красносельский,ЦАО
МТС Банк,55.826873,37.444495,"г. Москва, ул. Тушинская, д. 17",Покровское-Стрешнево,СЗАО
МТС Банк,55.795446,37.490518,"г. Москва, ул. Маршала Бирюзова, д. 20, стр. 1",Щукино,СЗАО
МТС Банк,55.695176,37.662712,"г. Москва, просп. Андропова, д. 18, корп. 1",Даниловский,ЮАО
Муниципальный Камчатпрофитбанк,55.791104,37.575323,"г. Москва, ул. Нижняя Масловка, д. 11, корп. 1",Беговой,САО
Народный Доверительный Банк,55.720402,37.636522,"г. Москва, ул. Дубининская д. 57, стр. 1",Даниловский,ЮАО
Народный Доверительный Банк,55.744982,37.579044,"г. Москва, ул. Плющиха, д. 10",Хамовники,ЦАО
Натиксис Банк,55.768651,37.622828,"г. Москва, бул. Цветной, д. 2",Мещанский,ЦАО
Нацинвестпромбанк,55.74004,37.58245,"г. Москва, пер. 2-й Неопалимовский, д. 10",Хамовники,ЦАО
Нацинвестпромбанк,55.893657,37.543875,"г. Москва, ш. Дмитровское, д. 110, стр. 3",Дмитровский,САО
Нацинвестпромбанк,55.620992,37.610047,"г. Москва, ш. Варшавское, д. 132, стр. 9",Чертаново Центральное,ЮАО
Национальный Банк Сбережений,55.760276,37.566459,"г. Москва, пер. Большой Предтеченский, д. 22",Пресненский,ЦАО
Национальный Резервный Банк,55.692918,37.574958,"г. Москва, просп. 60-летия Октября, д. 10а",Академический,ЮЗАО
Национальный Резервный Банк,55.692772,37.574669,"г. Москва, просп. 60-летия Октября, д. 10а",Академический,ЮЗАО
Национальный Стандарт,55.719188,37.629128,"г. Москва, пер. Партийный, д. 1, корп. 57, стр. 2, 3",Даниловский,ЮАО
Национальный Стандарт,55.734478,37.62414,"г. Москва, ул. Большая Ордынка, д. 52",Якиманка,ЦАО
НК Банк,55.775864,37.593138,"г. Москва, пл. Миусская, д. 2",Тверской,ЦАО
Новикомбанк,55.73224,37.619775,"г. Москва, ул. Большая Полянка, д. 50/1, стр. 1",Якиманка,ЦАО
Новикомбанк,55.727867,37.568847,"г. Москва, ул. Усачева, д. 24",Хамовники,ЦАО
Новикомбанк,55.739617,37.612259,"г. Москва, наб. Якиманская, д. 2",Якиманка,ЦАО
Новый Век,55.726313,37.62897,"г. Москва, ул. Щипок, д. 4, стр. 1",Замоскворечье,ЦАО
Новый Московский Банк,55.735668,37.569311,"г. Москва, пер. Большой Саввинский, д. 2-4-6, стр. 10",Хамовники,ЦАО
Новый Московский Банк,55.745098,37.566233,"г. Москва, пл. Киевского вокзала, д. 2",Дорогомилово,ЗАО
Новый Московский Банк,55.744705,37.565643,"г. Москва, пл. Киевского вокзала, д. 2",Дорогомилово,ЗАО
Новый Московский Банк,55.811007,37.800901,"г. Москва, ш. Щелковское, д. 75",Гольяново,ВАО
Новый Московский Банк,55.605226,37.286346,"г. Москва, Внуково, ул. 2-я Рейсовая, д. 2, корп. 5",Внуково,ЗАО
Новый Московский Банк,55.744632,37.566072,"г. Москва, пл. Киевского вокзала, д. 2",Дорогомилово,ЗАО
Новый Московский Банк,55.744469,37.566051,"г. Москва, пл. Киевского вокзала, д. 2",Дорогомилово,ЗАО
Новый Московский Банк,55.751499,37.565689,"г. Москва, просп. Кутузовский, д. 2/1, стр. 1",Дорогомилово,ЗАО
Новый Московский Банк,55.750332,37.583801,"г. Москва, бул. Новинский, д. 8, стр. 2",Арбат,ЦАО
НОКССбанк,55.749395,37.536967,"г. Москва, наб. Пресненская, д. 12",Пресненский,ЦАО
Ноосфера,55.710427,37.655041,"г. Москва, ул. Ленинская Слобода, д. 26",Даниловский,ЮАО
Норвик Банк,55.732006,37.640484,"г. Москва, ул. Зацепский Вал, д. 5",Замоскворечье,ЦАО
Норвик Банк,55.771899,37.593435,"г. Москва, ул. 1-я Тверская-Ямская, д. 8",Тверской,ЦАО
Норвик Банк,55.755398,37.585682,"г. Москва, бул. Новинский, д. 20а, стр. 8",Арбат,ЦАО
Норвик Банк,55.731969,37.640489,"г. Москва, ул. Зацепский Вал, д. 5",Замоскворечье,ЦАО
НС Банк,55.743988,37.668262,"г. Москва, ул. Добровольческая, д. 20, стр. 2",Таганский,ЦАО
НС Банк,55.644367,37.494601,"г. Москва, ул. Островитянова, д. 7",Обручевский,ЮЗАО
НС Банк,55.651619,37.596112,"г. Москва, ул. Азовская, д. 24, корп. 2",Зюзино,ЮЗАО
НС Банк,55.755804,37.656729,"г. Москва, ул. Земляной Вал, д. 34, стр. 4",Басманный,ЦАО
НС Банк,55.786144,37.722815,"г. Москва, ул. Ткацкая, д. 5, стр. 3",Соколиная Гора,ВАО
НС Банк,55.761051,37.602426,"г. Москва, бул. Тверской, д. 20, стр. 1",Пресненский,ЦАО
НС Банк,55.848617,37.438962,"г. Москва, ул. Сходненская, д. 35, корп. 1",Южное Тушино,СЗАО
НС Банк,55.670096,37.5658,"г. Москва, ул. Новочеремушкинская, д. 50",Черёмушки,ЮЗАО
НС Банк,55.589961,37.597376,"г. Москва, ш. Варшавское, д. 152, корп. 11",Чертаново Южное,ЮАО
Озон Банк,55.746625,37.537414,"г. Москва, наб. Пресненская, д. 10",Пресненский,ЦАО
ОТП Банк,55.821567,37.49828,"г. Москва, ш. Ленинградское, д. 16а, стр. 2",Войковский,САО
ОТП Банк,55.821573,37.498725,"г. Москва, ш. Ленинградское, д. 16а, стр. 2",Войковский,САО
ОТП Банк,55.745728,37.561878,"г. Москва, ул. Большая Дорогомиловская, д. 1",Дорогомилово,ЗАО
ОТП Банк,55.755326,37.65768,"г. Москва, ул. Земляной Вал, д. 39/1, стр. 1",Басманный,ЦАО
ОТП Банк,55.794965,37.711705,"г. Москва, пл. Преображенская, д. 6",Преображенское,ВАО
ОТП Банк,55.667821,37.5532,"г. Москва, ул. Профсоюзная, д. 43, корп. 1",Черёмушки,ЮЗАО
ОТП Банк,55.703971,37.773022,"г. Москва, просп. Волгоградский, д. 98, корп. 2, стр. 2",Кузьминки,ЮВАО
ОТП Банк,55.821152,37.497395,"г. Москва, ш. Ленинградское, д. 16а, стр. 1",Войковский,САО
ОТП Банк,55.675928,37.52855,"г. Москва, просп. Ленинский, д. 93",Ломоносовский,ЮЗАО
ОТП Банк,55.738303,37.661472,"г. Москва, ул. Марксистская, д. 3, корп. 1",Таганский,ЦАО
ОТП Банк,55.65914,37.751462,"г. Москва, бул. Мячковский, д. 1",Марьино,ЮВАО
ОТП Банк,55.789429,37.635105,"г. Москва, просп. Мира, д. 74, стр. 1",Мещанский,ЦАО
ОТП Банк,55.851116,37.435404,"г. Москва, бул. Яна Райниса, д. 2, корп. 1",Северное Тушино,СЗАО
Первый Инвестиционный Банк,55.873821,37.553238,"г. Москва, бул. Бескудниковский, д. 36, корп. 1",Бескудниковский,САО
Первый Инвестиционный Банк,55.706883,37.592096,"г. Москва, ул. Вавилова, д. 3",Донской,ЮАО
Первый Клиентский Банк,55.709603,37.655413,"г. Москва, ул. Ленинская Слобода, д. 19, стр. 1",Даниловский,ЮАО
Первый Клиентский Банк,55.768742,37.667632,"г. Москва, ул. Старая Басманная, д. 33",Басманный,ЦАО
Первый Клиентский Банк,55.723647,37.648638,"г. Москва, ул. Дербеневская, д. 14, корп. 2",Даниловский,ЮАО
Пересвет,55.723226,37.609805,"г. Москва, ул. Шаболовка, д. 10, корп. 2",Якиманка,ЦАО
Пересвет,55.723207,37.603945,"г. Москва, просп. Ленинский, д. 11, стр. 1",Якиманка,ЦАО
Петербургский Социальный Коммерческий Банк,55.774718,37.682174,"г. Москва, ул. Бакунинская, д. 17/28",Басманный,ЦАО
Пойдём!,55.804301,37.583432,"г. Москва, ул. Бутырская, д. 76, стр. 1",Бутырский,СВАО
Почта Банк,55.751721,37.71565,"г. Москва, ш. Энтузиастов, д. 13",Лефортово,ЮВАО
Почта Банк,55.860056,37.644865,"г. Москва, ул. Ивовая, д. 7",Свиблово,СВАО
Почта Банк,55.792894,37.49148,"г. Москва, ул. Народного Ополчения, д. 45",Щукино,СЗАО
Почта Банк,55.653727,37.559486,"г. Москва, ул. Херсонская, д. 37",Черёмушки,ЮЗАО
Почта Банк,55.792343,37.625246,"г. Москва, ул. Сущевский Вал, д. 62",Мещанский,ЦАО
Почта Банк,55.813929,37.62026,"г. Москва, ул. Аргуновская, д. 4",Останкинский,СВАО
Почта Банк,55.87527,37.493251,"г. Москва, ул. Зеленоградская, д. 31",Ховрино,САО
Почта Банк,55.872116,37.652049,"г. Москва, Дежнева пр-д, д. 2а",Южное Медведково,СВАО
Почта Банк,55.839044,37.528318,"г. Москва, ул. Михалковская, д. 13",Коптево,САО
Почта Банк,55.745602,37.511765,"г. Москва, Багратионовский пр-д, д. 1, стр. 1",Филёвский Парк,ЗАО
Почта Банк,55.81871,37.573501,"г. Москва, ш. Дмитровское, д. 13а",Тимирязевский,САО
Почта Банк,55.776897,37.480523,"г. Москва, ул. Народного Ополчения, д. 20, корп. 1",Хорошёво-Мнёвники,СЗАО
Почта Банк,55.821371,37.497666,"г. Москва, ш. Ленинградское, д. 16а, стр. 1",Войковский,САО
Почта Банк,55.76375,37.555518,"г. Москва, ш. Звенигородское, д. 3а",Пресненский,ЦАО
Почта Банк,55.739197,37.414262,"г. Москва, ул. Ярцевская, д. 24, корп. 1",Кунцево,ЗАО
Почта Банк,55.673768,37.760422,"г. Москва, ул. Совхозная, д. 39",Люблино,ЮВАО
Почта Банк,55.805133,37.516952,"г. Москва, просп. Ленинградский, д. 74, корп. 1",Аэропорт,САО
Почта Банк,55.876109,37.637431,"г. Москва, ул. Полярная, д. 16, корп. 1",Южное Медведково,СВАО
Почта Банк,55.686137,37.849832,"г. Москва, ул. Авиаконструктора Миля, д. 4, корп. 1",Выхино-Жулебино,ЮВАО
Почта Банк,55.84427,37.546309,"г. Москва, ул. Лихоборские Бугры, д. 14",Коптево,САО
Почта Банк,55.885924,37.60801,"г. Москва, ул. Плещеева, д. 3",Бибирево,СВАО
Почта Банк,55.596457,37.599822,"г. Москва, ул. Академика Янгеля, д. 2",Чертаново Южное,ЮАО
Почта Банк,55.746167,37.565458,"г. Москва, ул. Большая Дорогомиловская, д. 8",Дорогомилово,ЗАО
Почта Банк,55.776897,37.480523,"г. Москва, ул. Народного Ополчения, д. 20, корп. 1",Хорошёво-Мнёвники,СЗАО
Почта Банк,55.872116,37.652049,"г. Москва, Дежнева пр-д, д. 2а",Южное Медведково,СВАО
Почта Банк,55.635242,37.384912,"г. Москва, ул. Родниковая, д. 16",Солнцево,ЗАО
Почта Банк,55.751721,37.71565,"г. Москва, ш. Энтузиастов, д. 13",Лефортово,ЮВАО
Почта Банк,55.566856,37.576244,"г. Москва, бул. Дмитрия Донского, д. 11",Северное Бутово,ЮЗАО
Почта Банк,55.795017,37.712721,"г. Москва, пл. Преображенская, д. 8",Преображенское,ВАО
Почта Банк,55.784266,37.456534,"г. Москва, ул. Живописная, д. 12, корп. 1",Хорошёво-Мнёвники,СЗАО
Почта Банк,55.892752,37.529053,"г. Москва, ул. Клязьминская, д. 19",Дмитровский,САО
Почта Банк,55.888282,37.651489,"г. Москва, ул. Широкая, д. 1, корп. 1",Северное Медведково,СВАО
Почта Банк,55.845426,37.440069,"г. Москва, ул. Сходненская, д. 44/17",Южное Тушино,СЗАО
Почта Банк,55.794431,37.774876,"г. Москва, пл. Измайловская, д. 11",Измайлово,ВАО
Почта Банк,55.682117,37.456946,"г. Москва, ул. Большая Очаковская, д. 17",Очаково-Матвеевское,ЗАО
Почта Банк,55.850608,37.414971,"г. Москва, бул. Яна Райниса, д. 22, корп. 1",Северное Тушино,СЗАО
Почта Банк,55.73102,37.641491,"г. Москва, ул. Кожевническая, д. 1 стр. 1",Замоскворечье,ЦАО
Почта Банк,55.65712,37.485447,"г. Москва, ул. 26 Бакинских Комиссаров, д. 7, корп. 4",Тропарёво-Никулино,ЗАО
Почта Банк,55.775708,37.497554,"г. Москва, просп. Маршала Жукова, д. 9",Хорошёво-Мнёвники,СЗАО
Почта Банк,55.641891,37.365307,"г. Москва, ул. Новопеределкинская, д. 14, корп. А",Ново-Переделкино,ЗАО
Почта Банк,55.740255,37.826998,"г. Москва, ул. Старый Гай, д. 8 Б",Вешняки,ВАО
Почта Банк,55.706645,37.666026,"г. Москва, ул. Сайкина, д. 2",Даниловский,ЮАО
Почта Банк,55.638324,37.80043,"г. Москва, 2-й квартал Капотни, д. 22",Капотня,ЮВАО
Почта Банк,55.86582,37.468391,"г. Москва, Валдайский пр-д, д. 8, стр. 2",Левобережный,САО
Почта Банк,55.690655,37.60708,"г. Москва, просп. Севастопольский, д. 11, корп. 1",Донской,ЮАО
Почта Банк,55.627541,37.654825,"г. Москва, бул. Кавказский, д. 35/2, корп. 1",Царицыно,ЮАО
Почта Банк,55.641139,37.533372,"г. Москва, ул. Миклухо-Маклая, д. 55",Коньково,ЮЗАО
Почта Банк,55.856565,37.348522,"г. Москва, ш. Пятницкое, д. 43, корп. 2",Митино,СЗАО
Почта Банк,55.792692,37.576842,"г. Москва, ул. Башиловская, д. 1, корп. 1",Савёловский,САО
Почта Банк,55.679257,37.573774,"г. Москва, ул. Кржижановского, д. 17, корп. 1",Академический,ЮЗАО
Почта Банк,55.758732,37.40672,"г. Москва, бул. Осенний, д. 11",Крылатское,ЗАО
Почта Банк,55.870763,37.631475,"г. Москва, Дежнева пр-д, д. 34, стр. 2",Южное Медведково,СВАО
Почта Банк,55.786324,37.471476,"г. Москва, ул. Маршала Тухачевского, д. 32, корп. 2",Хорошёво-Мнёвники,СЗАО
Почта Банк,55.653646,37.764533,"г. Москва, ул. Братиславская, д. 26",Марьино,ЮВАО
Почта Банк,55.594571,37.611025,"г. Москва, ул. Россошанская, д. 7, корп. 1 Б",Чертаново Южное,ЮАО
Почта Банк,55.641766,37.61449,"г. Москва, просп. Балаклавский, д. 6 Б",Нагорный,ЮАО
Почта Банк,55.673946,37.661656,"г. Москва, просп. Андропова, д. 38",Нагатино-Садовники,ЮАО
Почта Банк,55.850431,37.451338,"г. Москва, бул. Химкинский, д. 1",Южное Тушино,СЗАО
Почта Банк,55.675898,37.466663,"г. Москва, просп. Мичуринский, Олимпийская Деревня, д. 3",Тропарёво-Никулино,ЗАО
Почта Банк,55.790871,37.790133,"г. Москва, ул. 6-я Парковая, д. 13",Измайлово,ВАО
Почта Банк,55.703455,37.816831,"г. Москва, ул. Ташкентская, д. 15/22",Выхино-Жулебино,ЮВАО
Почта Банк,55.786549,37.593534,"г. Москва, ул. Новослободская, д. 49/2",Тверской,ЦАО
Почта Банк,55.61923,37.73709,"г. Москва, ул. Шипиловская, д. 50, корп. 3, стр. 1",Зябликово,ЮАО
Почта Банк,55.6044,37.521404,"г. Москва, ул. Вильнюсская, д. 6",Ясенево,ЮЗАО
Почта Банк,55.887879,37.669294,"г. Москва, ул. Широкая, д. 17, корп. 1",Северное Медведково,СВАО
Почта Банк,55.712192,37.607044,"г. Москва, ул. Шаболовка, д. 69/32",Даниловский,ЮАО
Почта Банк,55.771067,37.832655,"г. Москва, ш. Энтузиастов, д. 98г, стр. 1",Ивановское,ВАО
Почта Банк,55.613971,37.494996,"г. Москва, ул. Генерала Тюленева, д. 41а",Тёплый Стан,ЮЗАО
Почта Банк,55.807617,37.465085,"г. Москва, ул. Маршала Василевского, д. 15",Щукино,СЗАО
Почта Банк,55.69937,37.854323,"г. Москва, просп. Лермонтовский, д. 12",Выхино-Жулебино,ЮВАО
Почта Банк,55.756299,37.620944,"г. Москва, ул. Никольская, д. 7",Тверской,ЦАО
Почта Банк,55.61893,37.706583,"г. Москва, ул. Шипиловская, д. 13, корп. 2",Орехово-Борисово Северное,ЮАО
Почта Банк,55.795657,37.560067,"г. Москва, ул. Верхняя Масловка, д. 21",Аэропорт,САО
Почта Банк,55.807617,37.465085,"г. Москва, ул. Маршала Василевского, д. 15",Щукино,СЗАО
Почта Банк,55.679257,37.573774,"г. Москва, ул. Кржижановского, д. 17, корп. 1",Академический,ЮЗАО
Почта Банк,55.642048,37.477069,"г. Москва, просп. Ленинский, д. 135, корп. 2",Тёплый Стан,ЮЗАО
Почта Банк,55.58352,37.599873,"г. Москва, ш. Варшавское, д. 143",Чертаново Южное,ЮАО
Почта Банк,55.611888,37.294195,"г. Москва, ул. Большая Внуковская, д. 15",Внуково,ЗАО
Почта Банк,55.650651,37.40074,"г. Москва, просп. Солнцевский, д. 9",Солнцево,ЗАО
Почта Банк,55.897669,37.59494,"г. Москва, ул. Лескова, д. 8",Бибирево,СВАО
Почта Банк,55.719355,37.732979,"г. Москва, ул. Грайвороновская, д. 14",Текстильщики,ЮВАО
Почта Банк,55.833907,37.593902,"г. Москва, ул. Ботаническая, д. 29, корп. 1",Марфино,СВАО
Почта Банк,55.65969,37.759092,"г. Москва, ул. Братиславская д. 15, корп. 1",Марьино,ЮВАО
Почта Банк,55.733088,37.593244,"г. Москва, просп. Комсомольский, д. 3",Хамовники,ЦАО
Почта Банк,55.647979,37.604822,"г. Москва, бул. Симферопольский, д. 22, корп. 1",Зюзино,ЮЗАО
Почта Банк,55.794431,37.774876,"г. Москва, пл. Измайловская, д. 11",Измайлово,ВАО
Почта Банк,55.746955,37.538826,"г. Москва, наб. Пресненская, д. 8, стр. 1",Пресненский,ЦАО
Почта Банк,55.684737,37.685369,"г. Москва, ул. Якорная, д. 9",Нагатинский Затон,ЮАО
Почта Банк,55.646427,37.737746,"г. Москва, бул. Новочеркасский, д. 44",Марьино,ЮВАО
Почта Банк,55.588039,37.643995,"г. Москва, ул. Харьковская, д. 8, корп. 2, стр. 2",Бирюлёво Западное,ЮАО
Почта Банк,55.708489,37.620804,"г. Москва, ул. Большая Тульская, д. 2",Даниловский,ЮАО
Почта Банк,55.712192,37.607044,"г. Москва, ул. Шаболовка, д. 69/32",Даниловский,ЮАО
Почта Банк,55.866393,37.678567,"г. Москва, ул. Менжинского, д. 5",Бабушкинский,СВАО
Почта Банк,55.790871,37.790133,"г. Москва, ул. 6-я Парковая, д. 13",Измайлово,ВАО
Почта Банк,55.728095,37.638639,"г. Москва, ул. Дубининская, д. 11, стр. 2",Замоскворечье,ЦАО
Почта Банк,55.877949,37.716966,"г. Москва, ул. Лосевская, д. 22",Ярославский,СВАО
Почта Банк,55.825404,37.435448,"г. Москва, ш. Волоколамское, д. 92, корп. 2",Покровское-Стрешнево,СЗАО
Почта Банк,55.708489,37.620804,"г. Москва, ул. Большая Тульская, д. 2",Даниловский,ЮАО
Почта Банк,55.866393,37.678567,"г. Москва, ул. Менжинского, д. 5",Бабушкинский,СВАО
Почта Банк,55.708368,37.48055,"г. Москва, ул. Веерная, д. 3, корп. 1",Очаково-Матвеевское,ЗАО
Почта Банк,55.752767,37.791767,"г. Москва, ул. 3-я Владимирская, д. 31/33",Перово,ВАО
Почта Банк,55.605308,37.530861,"г. Москва, ул. Тарусская, д. 14, корп. 1",Ясенево,ЮЗАО
Почта Банк,55.850431,37.451338,"г. Москва, бул. Химкинский, д. 1",Южное Тушино,СЗАО
Почта Банк,55.61876,37.592877,"г. Москва, ул. Чертановская д. 32, стр. 4",Чертаново Центральное,ЮАО
Почта Банк,55.730678,37.721874,"г. Москва, ул. Нижегородская, д. 92, корп. 1",Нижегородский,ЮВАО
Почта Банк,55.595991,37.593589,"г. Москва, ул. Академика Янгеля, д. 4, корп. 2",Чертаново Южное,ЮАО
Почта Банк,55.804602,37.762087,"г. Москва, ш. Щелковское, д. 10",Северное Измайлово,ВАО
Почта Банк,55.706645,37.666026,"г. Москва, ул. Сайкина, д. 2",Даниловский,ЮАО
Почта Банк,55.72474,37.580153,"г. Москва, просп. Комсомольский, д. 31",Хамовники,ЦАО
Почта Банк,55.677844,37.564482,"г. Москва, просп. Нахимовский, д. 42",Академический,ЮЗАО
Почта Банк,55.848791,37.35219,"г. Москва, пер. 3-й Митинский, д. 1",Митино,СЗАО
Почта Банк,55.703455,37.816831,"г. Москва, ул. Ташкентская, д. 15/22",Выхино-Жулебино,ЮВАО
Почта Банк,55.892752,37.529053,"г. Москва, ул. Клязьминская, д. 19",Дмитровский,САО
Почта Банк,55.658884,37.409326,"г. Москва, ул. Богданова, д. 6",Солнцево,ЗАО
Почта Банк,55.728095,37.638639,"г. Москва, ул. Дубининская, д. 11, стр. 2",Замоскворечье,ЦАО
Почта Банк,55.772922,37.585966,"г. Москва, ул. Большая Грузинская, д. 62",Пресненский,ЦАО
Почта Банк,55.679753,37.726383,"г. Москва, ул. Шоссейная, д. 35",Печатники,ЮВАО
Почта Банк,55.61149,37.719436,"г. Москва, бул. Ореховый, д. 13",Орехово-Борисово Северное,ЮАО
Почта Банк,55.653646,37.764533,"г. Москва, ул. Братиславская, д. 26",Марьино,ЮВАО
Почта Банк,55.890412,37.596432,"г. Москва, ул. Мурановская, д. 3",Бибирево,СВАО
Почта Банк,55.605308,37.530861,"г. Москва, ул. Тарусская, д. 14, корп. 1",Ясенево,ЮЗАО
Почта Банк,55.72474,37.580153,"г. Москва, просп. Комсомольский, д. 31",Хамовники,ЦАО
Почта Банк,55.786549,37.593534,"г. Москва, ул. Новослободская, д. 49/2",Тверской,ЦАО
Почта Банк,55.605583,37.742953,"г. Москва, ул. Ясеневая, д. 36",Орехово-Борисово Южное,ЮАО
Почта Банк,55.698534,37.746623,"г. Москва ул. 7-я Текстильщиков, д. 4",Текстильщики,ЮВАО
Почта Банк,55.745228,37.681223,"г. Москва, ул. Рабочая, д. 4",Таганский,ЦАО
Почта Банк,55.680653,37.672118,"г. Москва, ул. Судостроительная, д. 13",Нагатинский Затон,ЮАО
Почта Банк,55.698062,37.496943,"г. Москва, ул. Винницкая, д. 1",Раменки,ЗАО
Почта Банк,55.826131,37.514348,"г. Москва, ул. Клары Цеткин, д. 31",Войковский,САО
Почта Банк,55.794887,37.712812,"г. Москва, пл. Преображенская, д. 8",Преображенское,ВАО
Почта Банк,55.61893,37.706583,"г. Москва, ул. Шипиловская, д. 13, корп. 2",Орехово-Борисово Северное,ЮАО
Почта Банк,55.771366,37.67794,"г. Москва, ул. Бауманская, д. 38, стр. 2",Басманный,ЦАО
Почта Банк,55.764069,37.636709,"г. Москва, ул. Мясницкая, д. 26",Басманный,ЦАО
Почта Банк,55.6044,37.521404,"г. Москва, ул. Вильнюсская, д. 6",Ясенево,ЮЗАО
Почта Банк,55.856565,37.348522,"г. Москва, ш. Пятницкое, д. 43, корп. 2",Митино,СЗАО
Почта Банк,55.679257,37.573774,"г. Москва, ул. Кржижановского, д. 17, корп. 1",Академический,ЮЗАО
Почта Банк,55.767055,37.716956,"г. Москва, ул. Боровая, д. 20",Лефортово,ЮВАО
Почта Банк,55.845426,37.440069,"г. Москва, ул. Сходненская, д. 44/17",Южное Тушино,СЗАО
Почта Банк,55.675389,37.528038,"г. Москва, просп. Ленинский, д. 93",Ломоносовский,ЮЗАО
Почта Банк,55.677263,37.763088,"г. Москва, ул. Совхозная, д. 12",Люблино,ЮВАО
Почта Банк,55.890488,37.538928,"г. Москва, ул. Лобненская, д. 4",Дмитровский,САО
Почта Банк,55.734723,37.668709,"г. Москва, ул. Марксистская, д. 9",Таганский,ЦАО
Почта Банк,55.662716,37.554478,"г. Москва, ул. Наметкина, д. 13а",Черёмушки,ЮЗАО
Почта Банк,55.684127,37.598107,"г. Москва, ул. Винокурова, д. 28, корп. 1",Котловка,ЮЗАО
Почта Банк,55.866513,37.570892,"г. Москва, ул. Дубнинская, д. 12, корп. 3",Восточное Дегунино,САО
Почта Банк,55.803177,37.785849,"г. Москва, бул. Сиреневый, д. 15а",Северное Измайлово,ВАО
Почта Банк,55.739093,37.872684,"г. Москва, ул. Салтыковская, д. 27",Новокосино,ВАО
Почта Банк,55.579226,37.643458,"г. Москва, Востряковский пр-д, д. 11, корп. 1, стр. 2",Бирюлёво Западное,ЮАО
Почта Банк,55.756299,37.620944,"г. Москва, ул. Никольская, д. 7",Тверской,ЦАО
Почта Банк,55.723194,37.626636,"г. Москва, ул. Большая Серпуховская, д. 40, стр. 1",Замоскворечье,ЦАО
Почта Банк,55.653914,37.618749,"г. Москва, ш. Варшавское, д. 78/2",Нагорный,ЮАО
Почта Банк,55.704477,37.769149,"г. Москва, просп. Волгоградский, д. 88",Кузьминки,ЮВАО
Почта Банк,55.750245,37.823199,"г. Москва, просп. Зеленый, д. 66, корп. 1",Новогиреево,ВАО
Почта Банк,55.757761,37.698837,"г. Москва, ул. Красноказарменная, д. 9",Лефортово,ЮВАО
Почта Банк,55.767055,37.716956,"г. Москва, ул. Боровая, д. 20",Лефортово,ЮВАО
Почта Банк,55.739085,37.768517,"г. Москва, ул. Плеханова, д. 30",Перово,ВАО
Почта Банк,55.752767,37.791767,"г. Москва, ул. 3-я Владимирская, д. 31/33",Перово,ВАО
Почта Банк,55.771575,37.593965,"г. Москва, ул. 1-я Тверская-Ямская, д. 6",Тверской,ЦАО
Почта Банк,55.826131,37.514348,"г. Москва, ул. Клары Цеткин, д. 31",Войковский,САО
Почта Банк,55.856565,37.348522,"г. Москва, ш. Пятницкое, д. 43, корп. 2",Митино,СЗАО
Почта Банк,55.825404,37.435448,"г. Москва, ш. Волоколамское, д. 92, корп. 2",Покровское-Стрешнево,СЗАО
Почта Банк,55.71906,37.422404,"г. Москва, ш. Можайское, д. 29",Кунцево,ЗАО
Почта Банк,55.658884,37.409326,"г. Москва, ул. Богданова, д. 6",Солнцево,ЗАО
Почта Банк,55.775708,37.497554,"г. Москва, просп. Маршала Жукова, д. 9",Хорошёво-Мнёвники,СЗАО
Почта Банк,55.622426,37.506103,"г. Москва, ул. Профсоюзная, д. 152, корп. 1",Тёплый Стан,ЮЗАО
Почта Банк,55.784266,37.456534,"г. Москва, ул. Живописная, д. 12, корп. 1",Хорошёво-Мнёвники,СЗАО
Почта Банк,55.892752,37.529053,"г. Москва, ул. Клязьминская, д. 19",Дмитровский,САО
Почта Банк,55.61893,37.706583,"г. Москва, ул. Шипиловская, д. 13, корп. 2",Орехово-Борисово Северное,ЮАО
Почта Банк,55.784,37.634218,"г. Москва, просп. Мира, д. 51, стр. 1",Мещанский,ЦАО
Почта Банк,55.698062,37.496943,"г. Москва, ул. Винницкая, д. 1",Раменки,ЗАО
Почта Банк,55.641139,37.533372,"г. Москва, ул. Миклухо-Маклая, д. 55",Коньково,ЮЗАО
Почта Банк,55.6044,37.521404,"г. Москва, ул. Вильнюсская, д. 6",Ясенево,ЮЗАО
Почта Банк,55.682645,37.5634,"г. Москва, ул. Кржижановского, д. 5, корп. 1",Академический,ЮЗАО
Почта Банк,55.786549,37.593534,"г. Москва, ул. Новослободская, д. 49/2",Тверской,ЦАО
Почта Банк,55.857689,37.482247,"г. Москва, ул. Фестивальная, д. 39",Левобережный,САО
Почта Банк,55.772922,37.585966,"г. Москва, ул. Большая Грузинская, д. 62",Пресненский,ЦАО
Почта Банк,55.850431,37.451338,"г. Москва, бул. Химкинский, д. 1",Южное Тушино,СЗАО
Почта Банк,55.594571,37.611025,"г. Москва, ул. Россошанская, д. 7, корп. 1 Б",Чертаново Южное,ЮАО
Почта Банк,55.706645,37.666026,"г. Москва, ул. Сайкина, д. 2",Даниловский,ЮАО
Почта Банк,55.843705,37.356911,"г. Москва, ул. Дубравная, д. 39",Митино,СЗАО
Почта Банк,55.804602,37.762087,"г. Москва, ш. Щелковское, д. 10",Северное Измайлово,ВАО
Почта Банк,55.861844,37.563089,"г. Москва, бул. Бескудниковский, д. 12",Бескудниковский,САО
Почта Банк,55.727145,37.472483,"г. Москва, бул. Славянский, д. 5, корп. 1",Фили-Давыдково,ЗАО
Почта Банк,55.87525,37.512489,"г. Москва, ул. Новая, д. 10",Западное Дегунино,САО
Почта Банк,55.638931,37.770778,"г. Москва, ул. Алма-Атинская, д. 8, корп. 3",Братеево,ЮАО
Почта Банк,55.598981,37.538328,"г. Москва, ул. Паустовского, д. 8, корп. 1",Ясенево,ЮЗАО
Почта Банк,55.673946,37.661656,"г. Москва, просп. Андропова, д. 38",Нагатино-Садовники,ЮАО
Почта Банк,55.703455,37.816831,"г. Москва, ул. Ташкентская, д. 15/22",Выхино-Жулебино,ЮВАО
Почта Банк,55.653646,37.764533,"г. Москва, ул. Братиславская, д. 26",Марьино,ЮВАО
Почта Банк,55.790871,37.790133,"г. Москва, ул. 6-я Парковая, д. 13",Измайлово,ВАО
Почта Банк,55.799095,37.583128,"г. Москва, ул. Бутырская, д. 21",Савёловский,САО
Почта Банк,55.851782,37.640823,"г. Москва, ул. Седова, д. 7, корп. 1",Свиблово,СВАО
Почта Банк,55.718788,37.785922,"г. Москва, просп. Рязанский, д. 67/2",Рязанский,ЮВАО
Почта Банк,55.679753,37.726383,"г. Москва, ул. Шоссейная, д. 35",Печатники,ЮВАО
Почта Банк,55.816629,37.714399,"г. Москва, бул. Маршала Рокоссовского, д. 33/12",Богородское,ВАО
Почта Банк,55.883911,37.686616,"г. Москва, ул. Тайнинская, д. 24",Лосиноостровский,СВАО
