address,area,year,floor,entrance,num_rooms,lat,lon
"пр-кт. Мира, д. 188Б, к. 3, Москва",53253.20,2015,58,1,356,55.8355402,37.6584768
"пер. Чапаевский, д. 3, Москва",256740.60,2006,57,14,992,55.79818205,37.52038218638005
"ул. Мосфильмовская, д. 8, Москва",137500.80,2011,53,2,564,55.72377795,37.527035300180884
"ул. Мосфильмовская, д. 70, Москва",341272.69,2006,50,7,1046,55.7168266,37.5088701
"ул. Авиационная, д. 79, к. 1, Москва",50864.40,2003,49,1,242,55.8055475,37.4482404
"ул. Новодмитровская, д. 2, к. 7, Москва",51636.10,2018,49,2,419,55.8024458,37.5916064
"пр-кт. Ленинский, д. 111, к. 1, Москва",133432.40,2010,48,4,646,55.6616805,37.50939515631741
"пр-кт. Маршала Жукова, д. 78, Москва",83899.20,2011,48,1,345,55.78006355,37.45005831072871
"ул. Новодмитровская, д. 2, к. 5, Москва",44694.30,2018,47,1,431,55.8032287,37.5911578
"ул. Новодмитровская, д. 2, к. 6, Москва",44326.20,2017,47,1,461,55.8031507,37.5917255
"ул. Михневская, д. 8, Москва",270273.30,2013,45,20,2570,55.5796294,37.67159770940653
"ш. Хорошевское, д. 16, к. 1, Москва",25191.10,2008,44,1,224,55.7745696,37.5457817
"ш. Хорошевское, д. 16, к. 2, Москва",26809.30,2008,44,1,296,55.7743298,37.5465488
"ш. Ленинградское, д. 25, к. 2, Москва",37908.00,2012,42,1,327,55.82763115,37.48759457401711
"ул. Дыбенко, д. 38, к. 1, Москва",25675.00,2010,40,1,240,55.87679575,37.48412365315069
"ул. Профсоюзная, д. 64, к. 2, Москва",54832.17,2012,40,1,444,55.6654431,37.547574245345984
"ш. Рублевское, д. 107, Москва",60900.20,2012,40,3,332,55.7439172,37.4192978
"ул. Саляма Адиля, д. 2, к. 1, Москва",45916.90,2011,40,2,204,55.7739763,37.46731385151523
"мкр. Чертаново Северное, д. 1А, Москва",277517.10,2009,39,1,1518,55.637111,37.598523
"ул. Минская, д. 2, Москва",106300.40,2017,39,2,459,55.7253994,37.49714360106742
"ул. Русаковская, д. 31, Москва",127348.80,2009,39,5,492,55.7883793,37.6790674
"ул. Маршала Катукова, д. 24, к. 1, Москва",26070.00,2011,38,1,210,55.8044448,37.414566627065916
"пр-кт. Мира, д. 188Б, к. 4, Москва",91407.90,2015,38,3,827,55.83429775,37.659617059430495
"пр-кт. Вернадского, д. 94, к. 4, Москва",36524.10,2010,37,1,246,55.6530732,37.47169907908837
"ул. Исаковского, д. 39, к. 1, Москва",Не заполнено,2004,37,1,172,55.8067523,37.42353552297688
"ш. Ленинградское, д. 108, Москва",28902.30,2015,37,2,427,55.8605337,37.4675129
"наб. Шелепихинская, д. 34, к. 1, Москва",116067.60,2018,37,2,882,55.7635024,37.5080323
"ул. Авиационная, д. 79, Москва",108425.90,2001,35,1,504,55.8082484,37.44844221737028
"пр-кт. Вернадского, д. 94, к. 3, Москва",38607.50,2008,35,1,231,55.6529431,37.473061657159676
"ул. Крылатские Холмы, д. 33, к. 1, Москва",29547.00,2007,35,1,189,55.75686805,37.41826585756719
"ул. Мосфильмовская, д. 55, Москва",54142.50,2014,35,1,211,55.703152700000004,37.49500242860728
"ул. Первомайская, д. 42., Москва",177277.70,2011,35,4,1133,55.7927808,37.7866297
"ул. Сельскохозяйственная, д. 16, к. 1, Москва",20271.30,2008,35,1,184,55.8367478,37.643745344469366
"ул. Смольная, д. 49, Москва",63757.70,2015,35,4,496,55.8636139,37.4784556
"ул. Авиационная, д. 66, Москва",47949.00,2001,34,4,391,55.8097976,37.4605706
"ул. Авиационная, д. 77, Москва",56613.50,2008,34,1,284,55.8079063,37.45088638526502
"ул. Авиационная, д. 77, к. 1, Москва",29802.40,2010,34,1,66,55.80738235,37.4502314069654
"проезд. Кочновский, д. 4, к. 1, Москва",134964.00,2008,34,8,992,55.8068631,37.543256
"проезд. Кочновский, д. 4, к. 2, Москва",142352.90,2008,34,10,1023,55.8061667,37.5452632
"ул. Крылатские Холмы, д. 37, Москва",42505.00,2007,34,3,268,55.760237700000005,37.418904655936075
"проезд. Нагатинский 1-й, д. 11, к. 1, Москва",94498.00,2012,33,7,624,55.67894425,37.63390277185585
"проезд. Нагатинский 1-й, д. 11, к. 2, Москва",114258.00,2012,33,8,869,55.6778607,37.6356272
"проезд. Нагатинский 1-й, д. 11, к. 3, Москва",82129.00,2012,33,13,625,55.67682445,37.63510984349233
"ул. Авиационная, д. 77, к. 2, Москва",100588.00,2016,33,4,571,55.80741515,37.44880238028192
"пр-кт. Вернадского, д. 94, к. 2, Москва",36411.70,2006,33,1,220,55.6527887,37.47430082913331
"пр-кт. Вернадского, д. 105, к. 4, Москва",85173.00,2008,33,4,667,55.663295,37.4871928
"ш. Ленинградское, д. 94, к. 2, Москва",28475.90,2019,33,1,295,55.8558345,37.47167348959497
"пр-кт. Буденного, д. 51, к. 1, Москва",15844.80,2017,32,1,174,55.760513149999994,37.737701900000005
"пр-кт. Буденного, д. 51, к. 3, Москва",19826.20,2017,32,1,261,55.7603176,37.73865585
"пр-кт. Буденного, д. 51, к. 4, Москва",17356.00,2017,32,1,217,55.7598368,37.7382208
"б-р. Генерала Карбышева, д. 13а, Москва",32197.40,2017,32,1,432,55.78117295,37.46870769890973
"ул. Донецкая, д. 30, к. 2, Москва",56211.70,2018,32,13,979,55.6459094,37.7055544
"ул. Донецкая, д. 30, к. 1, Москва",56107.40,2019,32,6,894,55.6454299,37.706464
"ул. Дубнинская, д. 40А, к. 1, Москва",29460.90,2006,32,1,240,55.88896925,37.55843148900716
"ул. Дубнинская, д. 40А, к. 2, Москва",15798.10,2006,32,1,240,55.8893468,37.55842884994463
"ул. Дубнинская, д. 40А, к. 3, Москва",15644.00,2006,32,2,240,55.8888593,37.55960438692178
"ул. Дубнинская, д. 40А, к. 4, Москва",15764.10,2006,32,1,240,55.8892201,37.559600723872535
"пр-кт. Ленинский, д. 103, Москва",75060.70,2014,32,4,379,55.66515,37.514271
"пр-кт. Маршала Жукова, д. 43, к. 5, Москва",25262.20,2011,32,2,284,55.7735986,37.4719175
"проезд. Погонный, д. 3А, Москва",193529.70,2013,32,1,1334,55.8200513,37.7003218
"ул. Расплетина, д. 21, Москва",34646.00,2011,32,1,204,55.7983513,37.481923841442345
"б-р. Ходынский, д. 5, к. 1, Москва",14168.40,2006,32,2,115,55.78476585,37.5345418441576
"б-р. Ходынский, д. 5, к. 2, Москва",14114.00,2006,32,1,115,55.7842964,37.534193261297645
"б-р. Ходынский, д. 5, к. 3, Москва",14194.70,2006,32,2,115,55.783810200000005,37.53381768629764
"б-р. Ходынский, д. 5, к. 4, Москва",14187.60,2006,32,1,115,55.7833292,37.53345851823957
"ш. Хорошевское, д. 12, к. 1, Москва",14355.00,2010,32,7,1947,55.7749068,37.5503664
"проезд. Береговой, д. 5, к. 1, Москва",54508.30,2015,31,1,511,55.7560299,37.5064826
"пр-кт. Вернадского, д. 94, к. 1, Москва",25896.00,2006,31,1,199,55.6528128,37.4758709
"ул. Воронцовские Пруды, д. 3, Москва",93105.00,2004,31,2,294,55.66405775,37.53660882632868
"ул. Ивана Бабушкина, д. 10, Москва",Не заполнено,2008,31,1,143,55.68736275,37.562402250734195
"ш. Ленинградское, д. 25, к. 3, Москва",15311.00,2012,31,1,141,55.8280988,37.48789250345766
"ул. Наметкина, д. 18, Москва",15153.40,2011,31,1,145,55.6595806,37.56009517333135
"ул. Нежинская, д. 1, к. 1, Москва",29037.00,2008,31,1,157,55.71901965,37.47886863081074
"ул. Нежинская, д. 1, к. 2, Москва",28534.00,2008,31,1,165,55.71935355,37.47810953081074
"ул. Нежинская, д. 1, к. 3, Москва",28118.00,2008,31,1,156,55.718806650000005,37.477597230810744
"ул. Нежинская, д. 1, к. 4, Москва",26930.00,2008,31,1,157,55.718285449999996,37.47716743081074
"ул. Поляны, д. 5, Москва",109629.34,2018,31,6,1623,55.5565201,37.5543141
"ул. Ярцевская, д. 27, к. 1, Москва",52996.00,2009,31,3,284,55.741947249999996,37.41706654273641
"ул. Машиностроения 1-я, д. 10, Москва",114250.00,2012,30,10,984,55.714191,37.670914
"проезд. Астрадамский, д. 4А, к. 1, Москва",25200.90,2005,30,1,192,55.8111286,37.5611276346232
"проезд. Астрадамский, д. 4А, к. 2, Москва",21404.50,2005,30,1,196,55.8113143,37.56172169970425
"пр-кт. Вернадского, д. 37, к. 1А, Москва",23967.50,2004,30,2,160,55.67827035,37.51093401762735
"ул. Врубеля, д. 8, Москва",53246.30,2003,30,4,525,55.8057853,37.4988934260647
"б-р. Генерала Карбышева, д. 15, Москва",27584.00,2016,30,3,290,55.781713,37.4700034
"ш. Головинское, д. 7, Москва",13564.30,2018,30,1,280,55.8395426,37.4929892
"ш. Дмитровское, д. 13А, Москва",55757.30,2004,30,3,567,55.8183542,37.5736874
"пр-кт. Ленинский, д. 92, к. 1, Москва",34351.60,2006,30,1,154,55.6708357,37.51680844339849
"пр-кт. Ленинский, д. 98, к. 1, Москва",33640.00,2002,30,2,153,55.66981505,37.515287309428416
"пр-кт. Ленинский, д. 106, к. 1, Москва",39773.10,2003,30,2,152,55.66881135,37.51374820837156
"пр-кт. Ленинский, д. 128, к. 1, Москва",32232.10,2001,30,1,137,55.666633000000004,37.51050170887127
"ул. Юшуньская М., д. 3, Москва",112203.10,2010,30,12,612,55.6544298,37.5923027
"б-р. Маршала Рокоссовского, д. 6, к. 1, Москва",233822.60,2011,30,2,Не указано,55.810203200000004,37.727192029494034
"ул. Ярцевская, д. 32, Москва",48727.70,2012,30,5,320,55.7413936,37.4176169
"пр-кт. Ленинский, д. 123, Москва",65495.70,2006,29,8,590,55.6467619,37.47906524399974
"пр-кт. Ленинский, д. 131, Москва",79848.00,2006,29,10,711,55.64400955,37.473204478349956
"ул. Маршала Катукова, д. 24, к. 5, Москва",25791.70,2008,29,1,192,55.8030246,37.41310878929061
"ул. Маршала Катукова, д. 24, к. 6, Москва",25988.30,2008,29,1,191,55.8024238,37.412074950000004
"ул. Мироновская, д. 25, Москва",44328.70,2010,29,3,234,55.7879387,37.732233732259346
"ул. Мосфильмовская, д. 47Б, Москва",59477.00,2017,29,Не указано,Не указано,55.7195145,37.522677
"ул. Архитектора Власова, д. 8, Москва",54101.80,2009,28,1,292,55.678140049999996,37.548573381461466
"ш. Дмитровское, д. 13, Москва",56797.90,2017,28,5,406,55.8174871,37.5736472
"б-р. Жулебинский, д. 33, к. 1, Москва",39699.00,2001,28,6,364,55.68585385,37.84584454333678
"ул. Маршала Катукова, д. 24, к. 3, Москва",15967.60,2010,28,1,162,55.804505,37.4131414
"ул. Маршала Катукова, д. 24, к. 4, Москва",16127.60,2010,28,1,162,55.8037548,37.4134845
"ш. Рублевское, д. 101, Москва",Не заполнено,2019,28,1,879,55.7414698,37.4214436
"пер. Тепличный, д. 4, Москва",43755.00,2002,28,5,557,55.79015575,37.496024002847314
"ул. Генерала Глаголева, д. 19, Москва",40495.90,2013,27,3,385,55.784593,37.46293588362379
"наб. Карамышевская, д. 48, к. 3, Москва",17130.40,2006,27,2,280,55.773122799999996,37.46510784551935
"наб. Карамышевская, д. 56, к. 1, Москва",18351.10,2002,27,1,124,55.77443825,37.46160634859812
"ул. Маршала Конева, д. 14, Москва",30278.60,2010,27,1,96,55.79593775,37.48553665
"ул. Маршала Соколовского, д. 5, Москва",59219.80,2007,27,5,235,55.79257465,37.48841925
"пр-кт. Мичуринский, д. 80, Москва",36072.00,2004,27,1,258,55.6733343,37.454840997351965
"пр-кт. Нахимовский, д. 56, Москва",76371.00,2007,27,2,380,55.683605549999996,37.55581184331473
"ул. Озерная, д. 9, Москва",64360.10,2017,27,5,539,55.247179,37.232033
"ул. Покрышкина, д. 1, к. 1, Москва",39003.10,2009,27,4,311,55.6632022,37.478933
"проезд. Новомихалковский 1-й, д. 2, к. 1, Москва",8574.80,2004,26,1,91,55.83812505,37.54003594747728
"проезд. Новомихалковский 1-й, д. 14, Москва",4291.60,2004,26,4,95,55.83928085,37.53551237512887
"ул. Авиационная, д. 63, Москва",44775.00,2008,26,5,528,55.8090676,37.45509092573859
"ул. Автозаводская, д. 23Б, к. 2, Москва",53753.90,2018,26,6,667,55.7017515,37.6521607
"ул. Беломорская, д. 24, к. 3, Москва",18909.50,2010,26,1,229,55.86213375,37.47720973405376
"проезд. Березовой Рощи, д. 12, Москва",86629.70,2008,26,7,770,55.7912385,37.5201578
"ш. Варшавское, д. 141, к. 10, Москва",24369.20,2016,26,3,360,55.5890594,37.6024551
"ул. Губкина, д. 6, Москва",26064.00,2001,26,1,Не указано,55.6955457,37.563738061245324
"б-р. Кронштадтский, д. 6, к. 1, Москва",22651.70,2015,26,1,192,55.84105325,37.49369532574552
"б-р. Кронштадтский, д. 6, к. 2, Москва",22719.70,2015,26,1,37,55.8412847,37.49443649999999
"б-р. Кронштадтский, д. 6, к. 3, Москва",22812.30,2015,26,1,210,55.84098025,37.49522619009683
"б-р. Кронштадтский, д. 6, к. 4, Москва",22634.00,2015,26,1,116,55.84078385,37.49440720059441
"б-р. Кронштадтский, д. 6, к. 5, Москва",22750.60,2015,26,1,169,55.84049115,37.49368407233969
"ул. Марксистская, д. 7, Москва",32923.10,2001,26,3,183,55.7364187,37.6654692
"ш. Можайское, д. 2, Москва",100096.30,2001,26,1,504,55.7239388,37.4469163
"ул. Профсоюзная, д. 41, Москва",23514.00,2010,26,1,103,55.669975,37.55613667471448
"б-р. Славянский, д. 9, к. 6, Москва",34819.00,2013,26,5,569,55.7249626,37.466435056280034
"ул. Улофа Пальме, д. 1, Москва",105934.20,2000,26,6,502,55.7178847,37.5130798
"ул. Чертановская, д. 48, к. 3, Москва",28629.00,2007,26,1,267,55.6069318,37.5898404
"г. Зеленоград, д. 1804, к. 1804б, Москва",6799.00,2001,25,1,96,55.9787755,37.16568521689641
"д. Пыхтино, д. 27, ул. Авиаконструктора Петлякова, Москва",11989.50,2013,25,,,,
"д. Пыхтино, д. 31, ул. Авиаконструктора Петлякова, Москва",49544.60,2013,25,7,672,,
"д. Пыхтино, д. 16, ул. Летчика Грицевца, Москва",12000.00,2013,25,,,,
"д. Пыхтино, д. 29, ул. Авиаконструктора Петлякова, Москва",11999.40,2013,25,,,,
"д. Пыхтино, д. 25, ул. Авиаконструктора Петлякова, Москва",49109.10,2013,25,7,672,,
"г. Зеленоград, к. 1804Б, Москва",7718.70,2001,25,,,55.9787755,37.16568521689641
"ул. Вольская 2-я, д. 1, к. 1, Москва",10808.00,2010,25,,,55.68728225,37.9186376962064
"ул. Красногвардейская 3-я, д. 3, Москва",32069.80,2004,25,5,260,55.756566649999996,37.53775476767442
"проезд. Марьиной Рощи 17-й, д. 1, Москва",18255.90,2015,25,,,55.80737605,37.611429740621574
"пр-кт. 60-летия Октября, д. 8, Москва",19564.00,2003,25,1,172,55.6953174,37.57560630579554
"ул. Авиаконструктора Миля, д. 26, Москва",22262.00,2005,25,,,55.67748255,37.8582629868241
"ул. Авиаконструктора Петлякова(п Внуковское), д. 25, Москва",53488.00,2013,25,7,672,55.6243692,37.31490855964567
"ул. Авиаконструктора Петлякова(п Внуковское), д. 27, Москва",12895.10,2013,25,,,55.62531415,37.314409350000005
"ул. Авиаконструктора Петлякова(п Внуковское), д. 29, Москва",12919.60,2013,25,,,55.62574185,37.31413844924896
"ул. Авиаконструктора Петлякова(п Внуковское), д. 31, Москва",53450.40,2013,25,7,672,55.6264988,37.313541
"ул. Авиационная, д. 59, Москва",46035.00,2004,25,,,55.809101999999996,37.45641858672137
"ул. Адмирала Лазарева, д. 63, Москва",21273.00,2011,25,,,55.53746015,37.50642234449502
"ул. Академика Анохина, д. 2, к. 6, Москва",15134.00,2003,25,1,215,55.671097950000004,37.47341775104597
"ул. Академика Анохина, д. 19, к. 2, Москва",14443.00,2006,25,,,55.648012449999996,37.47006159373673
"ул. Академика Анохина, д. 19, Москва",14647.00,2006,25,1,192,55.648012449999996,37.47006159373673
"ул. Академика Королева, д. 32, Москва",12472.00,2004,25,,,55.82335845,37.595820957573736
"ул. Академика Скрябина, д. 6, Москва",20925.60,2015,25,3,408,55.7149491,37.796299075062606
"п. Московский, г. Московский, ул. Атласова, д. 11, Москва",12686.80,2016,25,,,55.5997964,37.3562895779821
"ул. Бажова, д. 8, Москва",70658.00,2007,25,,,55.832828,37.662077
"п. Сосенское, п. Коммунарка, ул. Бачуринская, д. 7, к. 2, Москва",44295.30,2018,25,2,569,,
"п. Сосенское, п. Коммунарка, ул. Бачуринская, д. 11, Москва",54203.00,2016,25,,,,
"ул. Беломорская, д. 13, к. 1, Москва",50514.70,2009,25,,,55.8653379,37.4734587
"ул. Беломорская, д. 18А, к. 1, Москва",14453.40,2014,25,1,154,55.8625987,37.4733886
"ул. Беломорская, д. 18А, к. 2, Москва",14417.50,2014,25,,,55.863602900000004,37.47429003390337
"проезд. Береговой, д. 5а, к. 2, Москва",14987.60,2017,25,1,114,55.75548175,37.509280029969005
"проезд. Береговой, д. 5 А, к. 3, Москва",14577.60,2017,25,,,55.7557876,37.50985599558359
"проезд. Береговой, д. 5А, к. 4, Москва",15736.80,2017,25,1,125,55.7557539,37.51064497062746
"проезд. Береговой, д. 5А, к. 5, Москва",14376.40,2017,25,,,55.7552673,37.5107854
"проезд. Береговой, д. 5А, к. 6, Москва",14807.40,2017,25,,,55.7549652,37.510588122019385
"проезд. Береговой, д. 5А, к. 7, Москва",18714.80,2017,25,1,144,55.7547392,37.50983628343722
"ул. Берзарина, д. 21, Москва",35048.00,2001,25,,,55.7875353,37.47409216081152
"б-р. Бескудниковский, д. 17, к. 1, Москва",12504.10,2010,25,,,55.864539,37.5570991
"б-р. Бескудниковский, д. 19, к. 1, Москва",13333.00,2010,25,1,168,55.86564505,37.556346500000004
"б-р. Бескудниковский, д. 21, к. 1, Москва",12993.10,2010,25,,,55.86663085,37.55554845199832
"п. Московский, г. Московский, ул. Бианки, д. 6, к. 1, Москва",12649.60,2016,25,1,124,55.602478649999995,37.361959302815706
"п. Московский, г. Московский, ул. Бианки, д. 6, к. 2, Москва",12659.80,2016,25,,,55.601844150000005,37.361610402815714
"п. Московский, г. Московский, ул. Бианки, д. 6, к. 4, Москва",12646.80,2016,25,1,149,55.6013013,37.36192925641087
"п. Московский, г. Московский, ул. Бианки, д. 12, к. 1, Москва",12649.90,2016,25,,,55.601981550000005,37.366559302815716
"п. Московский, г. Московский, ул. Бианки, д. 12, к. 2, Москва",12645.10,2016,25,,,55.601627050000005,37.365840502815715
"ул. Набережная Б., д. 19, к. 1, Москва",15303.50,2002,25,1,195,55.4510446,37.7329238
"ул. Набережная Б., д. 19, к. 3, Москва",24768.00,2004,25,,,55.4510446,37.7329238
"ул. Набережная Б., д. 19, к. 2, Москва",25272.00,2004,25,,,55.4510446,37.7329238
"ул. Очаковская Б., д. 1, Москва",18039.00,2011,25,3,288,55.6895203,37.4673271
"ул. Очаковская Б., д. 3, Москва",34009.00,2012,25,,,55.6885248,37.4658921
"ул. Очаковская Б., д. 5, Москва",18040.00,2011,25,3,288,55.6876487,37.4645503
"ул. Очаковская Б., д. 10, к. 1, Москва",10990.60,2012,25,,,55.68872195,37.46305640008556
"ул. Очаковская Б., д. 10, к. 2, Москва",10990.60,2012,25,1,144,55.68842535,37.46267625111004
"ш. Боровское, д. 2А, к. 3, Москва",35498.20,2017,25,,,55.661721,37.4115097
"ш. Боровское, д. 2А, к. 4, Москва",36706.10,2017,25,,,55.66141315,37.41010595
"ш. Боровское, д. 2А, к. 1, Москва",28962.00,2017,25,6,412,55.6614883,37.414236050822524
"ш. Боровское, д. 2А, к. 2, Москва",41819.60,2017,25,,,55.6619435,37.4130553
"ш. Боровское, д. 2, к. 7, Москва",38722.20,2018,25,,,55.6620998,37.4159914
"ул. Братеевская, д. 18, к. 1, Москва",12488.70,2001,25,1,240,55.636244149999996,37.76925834535626
"ул. Братеевская, д. 21, к. 3, Москва",12434.70,2000,25,,,55.632029349999996,37.7542116401353
"ул. Братеевская, д. 21, к. 4, Москва",12908.40,2001,25,1,239,55.6315275,37.7542334
"пр-кт. Буденного, д. 51, к. 6, Москва",12170.80,2017,25,,,55.7588922,37.739208838437506
"пр-кт. Буденного, д. 51, к. 5, Москва",13330.40,2017,25,1,161,55.7593903,37.73874386922433
"проезд. Валдайский, д. 10, к. 1, Москва",37260.60,2008,25,,,55.867047799999995,37.46731417428451
"ш. Варшавское, д. 141, к. 6, Москва",16410.00,2017,25,,,55.5903989,37.6016667789511
"ш. Варшавское, д. 141, к. 7, Москва",16675.10,2017,25,1,240,55.5900757,37.6013684
"ш. Варшавское, д. 141, к. 8, Москва",16675.10,2017,25,,,55.5893796,37.60131448762024
"ш. Варшавское, д. 141, к. 9, Москва",16675.10,2017,25,,,55.5884824,37.6007693
"ш. Варшавское, д. 141А, к. 1, Москва",17528.90,2018,25,1,192,55.58531715,37.6011404
"ш. Варшавское, д. 152, Москва",12589.50,2012,25,,,55.5934481,37.5995204
"ул. Васильцовский Стан, д. 5, к. 1, Москва",15273.00,2007,25,1,240,55.71393105,37.75081564901029
"ул. Васильцовский Стан, д. 7, к. 1, Москва",15335.00,2008,25,,,55.714909250000005,37.7501344292924
"ул. Васильцовский Стан, д. 9, Москва",15751.00,2009,25,1,240,55.7158512,37.7509239
"ул. Веерная, д. 4, к. 1, Москва",13544.00,2003,25,,,50.2741038,57.2078718
"пр-кт. Вернадского, д. 42, к. 1, Москва",15094.40,2010,25,,,55.6752431,37.4995561261842
"пр-кт. Вернадского, д. 42, к. 2, Москва",14962.00,2008,25,1,216,55.67549085,37.49901415495085
"ул. Вертолетчиков, д. 1, Москва",32047.00,2017,25,,,55.70012215,37.939764999614205
"ул. Вертолетчиков, д. 13, Москва",47866.10,2017,25,,,55.7038414,37.94107061342655
"ул. Верхние Поля, д. 4, Москва",23915.00,2002,25,1,Не указано,55.660865,37.744116242348255
"ул. Верхние Поля, д. 8, Москва",10626.00,2001,25,,,55.662597500000004,37.74519249212632
"ул. Верхние Поля, д. 14, к. 1, Москва",18211.00,2001,25,4,301,55.66212575,37.747924304467446
"ул. Верхние Поля, д. 16, к. 1, Москва",10816.00,2001,25,,,55.6626094,37.7472481
"ул. Верхние Поля, д. 34, к. 1, Москва",12262.00,2000,25,1,248,55.6677918,37.76200002036751
"ул. Вешняковская, д. 24, к. 1, Москва",13253.40,2004,25,,,55.719413700000004,37.820922296848735
"проезд. Высоковольтный, д. 1, к. 1, Москва",8564.00,2010,25,,,55.874007649999996,37.58909020967856
"проезд. Высоковольтный, д. 1, к. 2, Москва",8556.00,2010,25,1,144,55.8743494,37.58913866036356
"проезд. Высоковольтный, д. 1, к. 7, Москва",8444.00,2010,25,,,55.87470075,37.58916669104456
"проезд. Высоковольтный, д. 1, к. 8, Москва",8461.00,2011,25,,,55.87507905,37.589144600968595
"ул. Генерала Белова, д. 28, к. 1, Москва",41880.80,2018,25,8,472,55.6052435,37.72464564692982
"б-р. Генерала Карбышева, д. 16, к. -, Москва",23615.40,2005,25,,,55.7807258,37.47260543606189
"ул. Герасима Курина, д. 26, Москва",30083.31,2017,25,4,384,55.73058065,37.46467657228791
"ул. Главмосстроя, д. 6, Москва",35123.50,2007,25,,,55.6515077,37.409693
"ул. Главмосстроя, д. 10, Москва",50030.30,2008,25,7,460,55.653262749999996,37.40964998291422
"ул. Главмосстроя, д. 14, Москва",49830.60,2009,25,,,55.6548007,37.408851
"ул. Главмосстроя, д. 18, Москва",9037.00,2009,25,,,55.6551221,37.4078084
"ул. Главмосстроя, д. 20, Москва",9039.00,2009,25,1,96,55.65552975,37.40811121153966
"ул. Гурьянова, д. 17, к. 1, Москва",14237.00,2001,25,,,55.6886689,37.720629665581875
"ул. Гурьянова, д. 17, к. 2, Москва",13998.10,2001,25,,,55.688318,37.71972772657005
"ул. Гурьянова, д. 19, к. 1, Москва",10692.70,2001,25,1,148,55.688121949999996,37.71872713868577
"ул. Гурьянова, д. 19, к. 2, Москва",13879.70,2001,25,,,55.6880612,37.717654747225794
"ш. Дмитровское, д. 70, Москва",21243.10,2018,25,7,383,55.8589392,37.5590533
"ш. Дмитровское, д. 74, к. 2, Москва",9713.00,2016,25,,,55.86133705,37.556324302799794
"ш. Дмитровское, д. 86, Москва",9681.00,2013,25,1,169,55.869385699999995,37.54989554076958
"ул. Ельнинская, д. 14, к. 2, Москва",35745.80,2017,25,,,55.7381308,37.42594657876059
"ул. Заповедная, д. 18, к. 1, Москва",12289.00,2010,25,,,55.86751625,37.6392056
"ул. Заповедная, д. 18, к. 2, Москва",12653.00,2010,25,1,143,55.86791965,37.6388502
"ул. Заповедная, д. 18, к. 4, Москва",12623.00,2009,25,,,55.8687833,37.638522
"ул. Заповедная, д. 18, к. 3, Москва",12262.60,2009,25,,,55.868370049999996,37.63853849210116
"проезд. Заревый, д. 1, к. 1, Москва",15723.00,2011,25,3,276,55.8826492,37.65833661281482
"ул. Инициативная, д. 7, к. 3, Москва",37923.30,2006,25,,,55.7147115,37.4586052
"наб. Карамышевская, д. 34, Москва",18089.70,2015,25,3,312,55.76921765,37.47267284585858
"наб. Карамышевская, д. 62, к. 1, Москва",15995.40,2000,25,,,55.775641750000005,37.4595163485981
"ул. Ключевая, д. 18, Москва",12525.70,2001,25,1,238,55.6338845,37.7610075
"ул. Ключевая, д. 20, Москва",12472.50,2001,25,,,55.633546550000005,37.7609497
"ул. Коштоянца, д. 20, к. 1, Москва",15387.90,2006,25,,,55.674290299999996,37.47769890000001
"ул. Красного Маяка, д. 22, к. 3, Москва",12612.80,2010,25,1,144,55.61252575,37.57745924988091
"б-р. Кронштадтский, д. 49, к. 1, Москва",29934.60,2010,25,,,55.85301935,37.50953864305148
"ул. Крылатские Холмы, д. 24, Москва",21027.80,2013,25,,,55.76299445,37.416205654503045
"ул. Лавочкина, д. 34, Москва",58848.00,2002,25,5,478,55.8567983,37.4928686
"ул. Лавочкина, д. 34, к. 1, Москва",20072.00,2002,25,,,55.85744975,37.49427468277642
"г. Московский, ул. Лаптева, д. 2, Москва",15633.20,2016,25,1,124,55.601496749999995,37.366867802815705
"ул. Левобережная, д. 4, к. 10, Москва",11133.40,2016,25,,,55.86961384999999,37.48060797377306
"ул. Левобережная, д. 4, к. 11, Москва",11133.40,2013,25,1,144,55.86932085,37.479724860919674
"ул. Левобережная, д. 4, к. 18, Москва",11133.40,2014,25,,,55.8689617,37.48012443483479
"ул. Левобережная, д. 4, к. 2, Москва",11133.40,2014,25,,,55.870346850000004,37.475908591547466
"ул. Левобережная, д. 4, к. 3, Москва",11061.60,2017,25,2,144,55.8706737,37.47555478185157
"ул. Левобережная, д. 4, к. 16, Москва",10966.00,2017,25,,,55.8710025,37.475204266839455
"пр-кт. Ленинградский, д. 76, к. 3, Москва",16824.60,2002,25,,,55.807175349999994,37.51585887895412
"пр-кт. Ленинградский, д. 76, к. 4, Москва",17002.40,2002,25,1,157,55.806303150000005,37.51617105065565
"пр-кт. Ленинский, д. 105, к. 4, Москва",19363.00,2007,25,,,55.66344185,37.51795070356067
"пр-кт. Ленинский, д. 105, к. 3, Москва",20544.00,2008,25,1,144,55.66433655,37.51757793974056
"ул. Летчика Грицевца (п Внуковское), д. 16, Москва",12907.10,2013,25,,,55.6226661,37.3079967
"ул. Лобачевского, д. 4, к. 1, Москва",9087.00,2007,25,1,144,55.6655578,37.50732916700072
"ул. Лобачевского, д. 41, Москва",9861.00,2011,25,,,55.68907405,37.47142215
"ул. Лобачевского, д. 43, Москва",9872.00,2011,25,,,55.68994335,37.47026795621622
"ул. Лобачевского, д. 45, Москва",9893.00,2011,25,1,182,55.690808149999995,37.46915763190475
"ул. Лобачевского, д. 92, к. 1, Москва",14559.00,2000,25,,,55.679766,37.4834395356458
"ул. Лобачевского, д. 118, к. 5, Москва",16830.90,2017,25,,,55.693092,37.470331
"ул. Лодочная, д. 9, к. 1, Москва",17353.00,2004,25,1,149,55.837426199999996,37.45875624720718
"ул. Лодочная, д. 9, Москва",17490.00,2005,25,,,55.836694550000004,37.45631924416962
"ул. Лодочная, д. 17, Москва",17523.70,2005,25,1,147,55.83650325,37.45977664416961
"ул. Лукинская, д. 10, Москва",41978.00,2010,25,,,55.6493915,37.3434621
"ул. Льва Яшина, д. 5, к. 1, Москва",13950.50,2014,25,1,182,55.6981938,37.923285
"ул. Льва Яшина, д. 5, к. 2, Москва",13975.10,2014,25,,,55.6985531,37.9239216
"ул. Льва Яшина, д. 5, к. 3, Москва",13824.80,2014,25,,,55.6989602,37.9243049
"ул. Милашенкова, д. 1, Москва",32615.60,2003,25,5,405,55.8217603,37.5882297
"ул. Митинская, д. 10, Москва",43382.00,2007,25,,,55.83985,37.3784378
"ул. Митинская, д. 10, к. 1, Москва",25613.60,2007,25,,,55.84086105,37.37899202630228
"ул. Митинская, д. 28, к. 2, Москва",29194.00,2015,25,5,432,55.846213,37.3694138
"ул. Митинская, д. 28, Москва",29451.00,2015,25,,,55.8448225,37.3668207
"ул. Митинская, д. 28, к. 3, Москва",36346.00,2015,25,4,552,55.8461055,37.37192952802192
"ул. Митинская, д. 28, к. 4, Москва",36824.00,2016,25,,,55.845589,37.3729348
"ул. Митинская, д. 28, к. 5, Москва",32617.00,2016,25,6,568,55.84425015,37.37147724252752
"пр-кт. Мичуринский, д. 72, к. 1, Москва",22826.90,2014,25,,,55.6813264,37.46683194240123
"пр-кт. Мичуринский, д. 72, к. 2, Москва",23313.80,2014,25,,,55.6817984,37.46661498538866
"ул. Молодогвардейская, д. 24, Москва",26935.00,2016,25,3,440,55.73526915,37.42015489999535
"ул. Молодцова, д. 31, к. 2, Москва",11549.90,2015,25,,,55.878704850000005,37.622402050000005
"п. Московский, г. Московский, ул. Москвитина, д. 1, к. 1, Москва",12666.80,2016,25,,,55.5993025,37.356612577982105
"п. Московский, г. Московский, ул. Москвитина, д. 1, к. 2, Москва",12662.40,2016,25,1,145,55.5996688,37.35728657798211
"п. Московский, г. Московский, ул. Москвитина, д. 5, к. 1, Москва",12667.00,2016,25,,,55.5988221,37.360237303065865
"п. Московский, г. Московский, ул. Москвитина, д. 5, к. 2, Москва",12660.60,2016,25,1,121,55.5994697,37.360543203065866
"п. Московский, г. Московский, ул. Москвитина, д. 5, к. 3, Москва",12666.50,2016,25,,,55.5999379,37.360212177982106
"п. Московский, г. Московский, ул. Москвитина, д. 5, к. 4, Москва",12671.60,2016,25,1,149,55.5997965,37.36122707798211
"наб. Нагатинская, д. 18, к. 1, Москва",31537.20,2009,25,,,55.68388385,37.656995867226705
"ул. Нарвская, д. 1А, к. 4, Москва",17432.00,2012,25,,,55.831186349999996,37.501489705437706
"ул. Народного Ополчения, д. 3, Москва",53853.00,2015,25,7,629,55.77011825,37.47364781853124
"ул. Недорубова, д. 3, Москва",15530.80,2015,25,,,55.69957915,37.92912181970597
"ул. Недорубова, д. 5, Москва",15630.50,2015,25,,,55.700026449999996,37.92977903539399
"ул. Недорубова, д. 7, Москва",15582.00,2015,25,2,192,55.7006333,37.930449122165655
"ул. Недорубова, д. 14, Москва",15970.30,2016,25,,,55.702064750000005,37.934675642503294
"ул. Недорубова, д. 18, к. 1, Москва",16157.90,2016,25,2,192,55.7025077,37.93556985
"ул. Недорубова, д. 20, к. 1, Москва",15991.70,2016,25,,,55.7067545,37.9339457
"ул. Нежинская, д. 8, к. 1, Москва",26768.00,2005,25,1,163,55.7091318,37.46998937701984
"ул. Нежинская, д. 8, к. 4, Москва",26240.00,2005,25,,,55.7102605,37.4719038
"ул. Никулинская, д. 6, к. 3, Москва",15222.00,2003,25,,,55.66795215,37.46302046848106
"ул. Никулинская, д. 6, к. 2, Москва",14939.80,2002,25,1,216,55.667151950000004,37.46348109037456
"ул. Никулинская, д. 6, к. 1, Москва",15200.00,2002,25,,,55.666704249999995,37.46406994744058
"ул. Никулинская, д. 12, к. 2, Москва",15138.00,2004,25,,,55.6702378,37.46696587778659
"ул. Никулинская, д. 12, к. 1, Москва",14932.00,2006,25,1,216,55.669559,37.46747712355197
"ул. Новаторов, д. 34, к. 7, Москва",18265.90,2001,25,,,55.6641355,37.5210892
"ул. Новогиреевская, д. 30, Москва",10168.40,2002,25,1,142,55.7551193,37.79665186634672
"ул. Новокосинская, д. 13, к. 2, Москва",13050.60,2001,25,,,55.7369829,37.8540403
"ул. Новорогожская, д. 20, Москва",13132.00,2004,25,1,240,55.7400561,37.6876673
"ул. Новорогожская, д. 28, Москва",13031.00,2002,25,,,55.73967715,37.688998350000006
"ул. Новочеремушкинская, д. 63, к. 1, Москва",13248.20,2004,25,,,55.66517155,37.566621608087004
"б-р. Осенний, д. 17, Москва",32858.00,2001,25,1,,55.76178635,37.4055751439347
"ул. Перерва, д. 39, Москва",15942.90,2000,25,,,55.659166,37.746488514820555
"ул. Перерва, д. 43, Москва",12812.40,2001,25,,,55.6589474,37.7481453
"ул. Перерва, д. 55, Москва",14715.00,2001,25,1,248,55.665243700000005,37.76184151648936
"ул. Перерва, д. 57, Москва",15307.00,2001,25,,,55.665716200000006,37.76299667883699
"ул. Перерва, д. 59, Москва",12233.00,2001,25,1,248,55.6661547,37.764213666882
"проезд. Погонный, д. 14, Москва",29097.00,2009,25,,,55.8194533,37.71055580017635
"ул. Покровская, д. 12, Москва",25978.06,2017,25,4,384,55.69907955,37.938967116308646
"ул. Покровская, д. 17, к. 5, Москва",17368.50,2018,25,,,55.69879525,37.93094038241931
"ул. Покровская, д. 17А, к. 1, Москва",11410.50,2018,25,,,55.69853225,37.93554147626223
"ул. Покрышкина, д. 3, Москва",52556.20,2009,25,2,276,55.663698350000004,37.47039324999999
"ул. Полины Осипенко, д. 2, к. 1, Москва",11127.60,2014,25,,,55.77792915,37.53808045
"ул. Полины Осипенко, д. 2, Москва",11127.60,2014,25,,,55.77762525,37.53858859113902
"ул. Полины Осипенко, д. 2, к. 3, Москва",11127.60,2014,25,1,144,55.7787521,37.541690850827486
"ул. Полины Осипенко, д. 8, Москва",11125.40,2014,25,,,55.77974915,37.53631025
"ул. Профсоюзная, д. 25, к. 1, Москва",56081.70,2009,25,3,240,55.674035,37.562537097266556
"ш. Пятницкое, д. 15, к. 1, Москва",33256.70,2009,25,,,55.8420448,37.3818894
"ш. Пятницкое, д. 15, к. 3, Москва",26199.50,2008,25,3,60,55.841068050000004,37.3802675
"ш. Пятницкое, д. 21, Москва",39026.40,2013,25,,,55.8472334,37.3713496
"п. Московский, г. Московский, ул. Радужная, д. 9, Москва",18013.20,2013,25,,,54.6806147,20.583919725270476
"пер. Рогачевский, д. 7, к. 1, Москва",9816.00,2012,25,1,169,55.8689614,37.55371595
"ул. Рождественская, д. 27, к. 1, Москва",44234.00,2013,25,,,55.70719405,37.92386130996519
"ул. Рождественская, д. 33, Москва",63962.80,2016,25,,,55.7027569,37.9312738
"пр-кт. Рязанский, д. 2/1, к. 2, Москва",98632.30,2018,25,1,Не указано,55.728515,37.737596
"ул. Саморы Машела, д. 8, Москва",12249.50,2004,25,,,55.6480247,37.5001788
"ул. Саморы Машела, д. 8, к. 2, Москва",12237.10,2004,25,1,Не указано,55.64695715,37.50046407013253
"ул. Свободы, д. 99, к. 1, Москва",20329.30,2005,25,,,55.8708878,37.4412804
"пр-кт. Севастопольский, д. 28, к. 7, Москва",8861.50,2007,25,1,83,55.66437345,37.57438207035362
"б-р. Симферопольский, д. 30, к. 1, Москва",11000.80,2013,25,,,55.6427871,37.603842549999996
"б-р. Симферопольский, д. 30, к. 2, Москва",11000.80,2013,25,,,55.64288075,37.60265375
"б-р. Симферопольский, д. 30, к. 3, Москва",11001.10,2013,25,1,144,55.64313735,37.60299035
"ул. Синявинская, д. 11, к. 1, Москва",10989.30,2014,25,,,55.949526649999996,37.34610172559752
"ул. Синявинская, д. 11, к. 6, Москва",11000.80,2012,25,,,55.9453371,37.34507640347711
"ул. Синявинская, д. 11, к. 7, Москва",10990.60,2012,25,1,144,55.9450237,37.3457166
"ул. Синявинская, д. 11, к. 8, Москва",10990.60,2012,25,,,55.9445558,37.34622
"ул. Синявинская, д. 11, к. 11, Москва",10990.60,2016,25,1,144,55.947553549999995,37.34884445
"ул. Синявинская, д. 11, к. 12, Москва",11267.80,2013,25,,,55.9472308,37.349394950000004
"ул. Смольная, д. 61, к. 1, Москва",49801.60,2012,25,6,620,55.868484699999996,37.472050202425876
"ул. Снежная, д. 19, к. 2, Москва",18199.70,2008,25,,,55.854454000000004,37.64909027792345
"ул. Снежная, д. 28, Москва",15544.70,2003,25,,,55.85512565,37.65443272315839
"пр-кт. Солнцевский, д. 6, к. 1, Москва",46054.60,2009,25,2,392,55.65411335,37.40014189822995
"проезд. Соловьиный, д. 1, Москва",8426.20,2002,25,,,55.6194517,37.544067634285106
"п. Сосенское, п. Коммунарка, ул. Сосенский Стан, д. 17, Москва",42915.30,2016,25,,,,
"проезд. Студеный, д. 2, к. 1, Москва",24631.00,2005,25,5,352,55.8933351,37.6547092
"проезд. Студеный, д. 14, Москва",28441.00,2005,25,,,55.89289315,37.66114629743198
"ул. Твардовского, д. 2, к. 4, Москва",14640.63,2012,25,1,240,55.7988892,37.3890005
"ул. Твардовского, д. 2, к. 5, Москва",14520.07,2012,25,,,55.79849015,37.38935187232179
"ул. Твардовского, д. 12, Москва",15931.10,2009,25,1,238,55.7940572,37.397607949999994
"ул. Твардовского, д. 12, к. 1, Москва",15014.50,2009,25,,,55.79414695,37.40041385
"проезд. Тенистый, д. 2, к. 1, Москва",18234.70,2006,25,,,55.8586205,37.63522009145312
"ул. Удальцова, д. 3, к. 14, Москва",16673.00,2004,25,1,244,55.6722388,37.50865194265157
"ул. Удальцова, д. 5, к. 2, Москва",7954.00,2003,25,,,55.67190445,37.516192897112546
"ул. Удальцова, д. 5, к. 3, Москва",13682.00,2003,25,,,55.6721355,37.51647244792927
"ул. Удальцова, д. 7, к. 2, Москва",12016.00,2002,25,1,172,55.6713333,37.5136583
"ул. Удальцова, д. 17, к. 2, Москва",13227.00,2006,25,,,55.67280635,37.512958007609654
"ул. Удальцова, д. 17, к. 1, Москва",12735.20,2005,25,1,96,55.6731291,37.51325324554384
"ул. Удальцова, д. 19, к. 2, Москва",11366.00,2001,25,,,55.673070949999996,37.51036525116179
"проезд. Шмитовский, д. 16, стр. 1, Москва",35234.10,2004,25,3,197,55.7560386,37.5266812
"проезд. Электролитный, д. 16, к. 1, Москва",22976.00,2014,25,,,55.672238300000004,37.61145216358874
"проезд. Электролитный, д. 16, к. 2, Москва",17366.00,2015,25,,,55.6714937,37.6108682
"проезд. Электролитный, д. 16, к. 3, Москва",22861.00,2015,25,4,384,55.6705794,37.6104101
"проезд. Электролитный, д. 16, к. 4, Москва",11499.00,2015,25,,,55.670669200000006,37.61154767996109
"ш. Ярославское, д. 122, к. 1, Москва",16345.50,2004,25,,,55.8699372,37.7122894
"ул. Ярцевская, д. 24, к. 1, Москва",41874.50,2017,25,5,498,55.7407211,37.4157913
"ул. Ярцевская, д. 24, к. 2, Москва",17501.60,2017,25,,,55.73953975,37.41499055
"ул. Новокузьминская 1-я, д. 11, Москва",13164.90,2010,24,1,138,55.7158121,37.7881119
"проезд. Грайвороновский 2-й, д. 38, к. 1, Москва",25724.90,2017,24,,,55.72446775,37.740905289696215
"проезд. Грайвороновский 2-й, д. 42, к. 2, Москва",24952.70,2018,24,3,276,55.7254759,37.7434629599082
"проезд. Грайвороновский 2-й, д. 42, к. 4, Москва",24972.30,2018,24,,,55.7248107,37.744844119188926
"пер. Щемиловский 2-й, д. 5А, Москва",24441.90,2013,24,,,55.7788772,37.608629210740744
"ул. Владимирская 2-я, д. 45, Москва",36876.60,2006,24,6,290,55.749362,37.786193
"ул. Филевская 2-я, д. 8, Москва",13610.00,2012,24,,,55.7372051,37.4928975
"линия. Северная 9-я, д. 23, к. 1, Москва",9858.00,2009,24,,,55.932318499999994,37.55012345
"линия. Северная 9-я, д. 23, к. 3, Москва",9834.00,2009,24,2,161,55.93229395,37.5520947
"линия. Северная 9-я, д. 25, к. 3, Москва",9791.00,2009,24,,,55.9326789,37.554459
"ул. Абрамцевская, д. 7, Москва",8846.00,2005,24,1,184,55.9027357,37.5733235
"ул. Абрамцевская, д. 11, к. 3, Москва",9093.00,2004,24,,,55.9055794,37.57325179962989
"ул. Авиаконструктора Сухого, д. 2, к. 2, Москва",16435.50,2017,24,1,134,55.787104,37.5423718
"ул. Авиаконструктора Сухого, д. 2, к. 1, Москва",171385.00,2017,24,,,55.7855891,37.5403125
"ул. Адмирала Лазарева, д. 63, к. 1, Москва",20254.00,2011,24,,,55.53674035,37.50790975174726
"ул. Адмирала Лазарева, д. 63, к. 2, Москва",15736.00,2011,24,2,230,55.53664585,37.50684615174727
"ул. Адмирала Лазарева, д. 63, к. 3, Москва",15685.00,2011,24,,,55.536808449999995,37.505882251747266
"ул. Азовская, д. 24, к. 2, Москва",112111.00,2004,24,,,55.6516428,37.5975314
"ул. Базовская, д. 15, к. 15, Москва",15143.00,2015,24,1,253,55.87622365,37.50529002544801
"пр-кт. Балаклавский, д. 20, к. 1, Москва",8871.00,2003,24,,,55.6430014,37.60009775
"пр-кт. Балаклавский, д. 24, к. 1, Москва",8840.00,2003,24,1,184,55.643126550000005,37.59723143144757
"п. Сосенское, п. Коммунарка, ул. Бачуринская, д. 7, к. 1, Москва",42958.23,2018,24,,,,
"ул. Беловежская, д. 37, к. 1, Москва",17651.00,2009,24,4,Не указано,55.71240755,37.39387912055288
"ул. Беломорская, д. 8, к. 1, Москва",14892.30,2014,24,,,55.861589699999996,37.46940327477876
"ул. Беломорская, д. 11, к. 1, Москва",37610.00,2015,24,,,55.86531455,37.47161559221716
"ул. Белореченская, д. 39, Москва",9093.00,2002,24,1,184,55.66425775,37.77188315492958
"ул. Белореченская, д. 41, к. 1, Москва",8795.00,2002,24,,,55.6633727,37.77292119193825
"ул. Берзарина, д. 28А, к. 1, Москва",13576.30,2017,24,,,55.790949850000004,37.47544755160507
"ул. Берзарина, д. 28А, к. 2, Москва",13678.90,2017,24,1,123,55.790474200000006,37.47533890000001
"ул. Берзарина, д. 28А, к. 3, Москва",13544.70,2017,24,,,55.7900834,37.47556739045598
"ул. Берзарина, д. 28А, к. 4, Москва",13563.10,2017,24,1,164,55.7895815,37.47571205
"б-р. Бескудниковский, д. 10, к. 5, Москва",10931.00,2002,24,,,55.8613163,37.562879721774195
"б-р. Бескудниковский, д. 20, к. 5, Москва",9230.00,2005,24,1,161,55.86541065,37.5600744811524
"б-р. Бескудниковский, д. 28, к. 5, Москва",9076.00,2006,24,,,55.8685184,37.558297628921565
"б-р. Бескудниковский, д. 30, к. 2, Москва",12557.60,2006,24,,,55.87060725,37.55664671078753
"б-р. Бескудниковский, д. 38, к. 1, Москва",9041.20,2008,24,1,161,55.8741847,37.55243651575434
"б-р. Бескудниковский, д. 58, к. 2, Москва",12464.60,2009,24,,,55.8744682,37.5361794
"ул. Очаковская Б., д. 44, к. 1, Москва",27927.19,2017,24,,,55.6753293,37.44479172432072
"ул. Брусилова, д. 27, к. 1, Москва",9005.90,2008,24,1,138,55.501550449999996,37.59130482836422
"ул. Брусилова, д. 27, к. 2, Москва",8968.40,2008,24,,,55.501887749999995,37.59034217875251
"ул. Брусилова, д. 27, к. 3, Москва",8938.20,2008,24,1,138,55.502222450000005,37.589386128364225
"ул. Брусилова, д. 35, к. 1, Москва",9308.20,2009,24,,,55.50138375,37.597016507229114
"ул. Брусилова, д. 37, к. 1, Москва",9293.30,2009,24,1,138,55.5015975,37.59813405771158
"ул. Брусилова, д. 39, к. 1, Москва",8980.10,2009,24,,,55.50190545,37.599246306306675
"ул. Ватутина, д. 18, к. 2, Москва",28734.00,2003,24,,,55.72240925,37.45214940246751
"пр-кт. Вернадского, д. 29, к. 1, Москва",33960.60,2015,24,,,55.680737199999996,37.51649891636559
"пр-кт. Вернадского, д. 54, Москва",14607.40,2018,24,,,55.6735938,37.49482580046475
"ул. Верхние Поля, д. 35, к. 1, Москва",9021.60,2002,24,,,55.6675329,37.7565540087963
"ул. Верхние Поля, д. 45, к. 1, Москва",11757.80,2004,24,1,230,55.667768949999996,37.77404862145896
"ул. Верхние Поля, д. 45, к. 2, Москва",11771.80,2003,24,,,55.6677706,37.77534500972872
"ул. Вилиса Лациса, д. 1, Москва",10876.50,2004,24,1,138,55.8647966,37.4325622
"ул. Вилиса Лациса, д. 17, к. 1, Москва",10166.40,2008,24,,,55.86327015,37.42420850356223
"ул. Вилиса Лациса, д. 21, к. 2, Москва",10876.00,2005,24,1,138,55.8624827,37.422994
"пр-кт. Волгоградский, д. 86, к. 1, Москва",12084.00,2014,24,,,55.7041567,37.76865
"пр-кт. Волгоградский, д. 96, к. 1, Москва",9005.60,2009,24,,,55.70380485,37.77195649128424
"пр-кт. Волгоградский, д. 106, к. 1, Москва",8994.30,2008,24,1,138,55.703398899999996,37.775059649999996
"пр-кт. Волгоградский, д. 183, к. 2, Москва",13199.00,2001,24,,,55.6959802,37.8115619
"ул. Высокая, д. 21, Москва",24815.00,2002,24,,,55.6817754,37.66267324184931
"ул. Генерала Белобородова, д. 24, Москва",29895.80,2013,24,1,252,55.8308167,37.354103
"ул. Герасима Курина, д. 20, Москва",10115.40,2004,24,,,55.73070145,37.468091639168875
"ул. Герасима Курина, д. 22, Москва",9387.00,2005,24,1,184,55.7305796,37.46662222875796
"ул. Герасима Курина, д. 42, Москва",10516.90,2014,24,,,55.7304825,37.4634330873399
"ул. Грина, д. 1, к. 8, Москва",18360.70,2005,24,2,368,55.56066985,37.587366399972964
"ул. Дмитрия Ульянова, д. 43, к. 3, Москва",17172.00,2005,24,,,55.682280000000006,37.5942478721943
"ш. Дмитровское, д. 94, к. 1, Москва",9009.00,2008,24,,,55.8748,37.54900117270306
"ш. Дмитровское, д. 96, к. 3, Москва",12445.10,2009,24,1,155,55.8772564,37.5484076
"ш. Дмитровское, д. 107, к. 4, Москва",61675.00,2018,24,,,55.8797828,37.5397752
"ул. Дыбенко, д. 14, к. 2, Москва",12764.60,2005,24,,,55.870596899999995,37.48597116120611
"ул. Дыбенко, д. 16, к. 1, Москва",13587.60,2005,24,1,120,55.871315,37.4851952
"ш. Загородное, д. 9, к. 3, Москва",8709.60,2000,24,,,55.6938197,37.60806
"ул. Загорьевская, д. 15, Москва",8872.00,2003,24,1,184,55.5804247,37.6884684
"ул. Загорьевская, д. 17, Москва",8737.00,2003,24,,,55.5805542,37.689459370701314
"ул. Загорьевская, д. 25, Москва",17863.30,2004,24,2,368,55.5830751,37.6949952
"пр-кт. Защитников Москвы, д. 7, к. 1, Москва",12911.30,2011,24,,,55.70032465,37.91796578953514
"пр-кт. Зеленый, д. 22, Москва",42068.00,2006,24,,,55.7508456,37.7884063
"б-р. Измайловский, д. 50, Москва",14043.80,2008,24,1,107,55.796316149999996,37.807752148981564
"ул. Кантемировская, д. 29, Москва",15340.00,2001,24,,,55.6372403,37.6656706
"ул. Кастанаевская, д. 43, к. 4, Москва",9052.00,2010,24,,,55.732036,37.4670252
"ул. Каховка, д. 37, к. 1, Москва",19073.10,2003,24,2,168,55.65862894999999,37.56386119251643
"ш. Каширское, д. 148, к. 1, Москва",12720.00,2007,24,,,55.59538714999999,37.7243195858735
"ш. Каширское, д. 148, к. 2, Москва",12715.00,2007,24,2,220,55.59488825,37.72419258308665
"ул. Кировоградская, д. 22, к. 2, Москва",40292.00,2014,24,,,55.6160791,37.60013753614458
"ул. Клары Цеткин, д. 18Б, к. 1, Москва",15585.90,2007,24,1,135,55.821758349999996,37.51995522028682
"ул. Клинская, д. 16, к. 1, Москва",8503.50,2009,24,,,55.870002,37.49368474581378
"ул. Коштоянца, д. 20, к. 4, Москва",19251.00,2006,24,,,55.67567905,37.475588425
"проезд. Лазоревый, д. 5, к. 1, Москва",10872.00,2017,24,1,145,55.8476276,37.6351271
"проезд. Лазоревый, д. 5, к. 5, Москва",20964.70,2016,24,,,55.84730745,37.63597972456816
"ул. Лебедянская, д. 38, Москва",18196.40,2004,24,,,55.5859589,37.6967665
"пр-кт. Ленинский, д. 119, к. 1, Москва",14216.00,2007,24,1,161,55.65095935,37.489130773110375
"пр-кт. Ленинский, д. 119, к. 2, Москва",13993.70,2007,24,,,55.6505446,37.488964498632015
"пр-кт. Ленинский, д. 134, Москва",33338.00,2019,24,5,357,55.6660454,37.50854817744966
"ул. Летчика Ульянина (п Внуковское), д. 6, Москва",62009.90,2015,24,,,55.625387450000005,37.308603373007855
"ул. Лобачевского, д. 98, к. 3, Москва",20908.00,2009,24,1,121,55.6840876,37.4818951
"ул. Лобачевского, д. 118, к. 1, Москва",25951.20,2017,24,,,55.693573,37.469268372839146
"ул. Лобачевского, д. 118, к. 2, Москва",50114.70,2017,24,,,55.6932879,37.4678197
"ул. Лухмановская, д. 11, Москва",9104.50,2007,24,1,184,55.7204285,37.8982357498192
"ул. Лухмановская, д. 13, Москва",8925.30,2006,24,,,55.721211600000004,37.8977703498192
"ул. Лухмановская, д. 15, к. 1, Москва",8937.00,2007,24,,,55.7210587,37.8920202998192
"ул. Лухмановская, д. 15, к. 2, Москва",8930.50,2007,24,1,138,55.721846049999996,37.89253597467949
"ул. Лухмановская, д. 15, к. 3, Москва",8919.20,2007,24,,,55.7220888,37.8939515251855
"ул. Лухмановская, д. 15, Москва",9105.80,2006,24,1,184,55.7214678,37.8963751255019
"ул. Лухмановская, д. 17, к. 1, Москва",18336.30,2007,24,,,55.7227676,37.89551009982838
"ул. Лухмановская, д. 18, Москва",8921.10,2006,24,1,184,55.7200896,37.90311012564103
"ул. Лухмановская, д. 20, Москва",9020.00,2007,24,,,55.72080045,37.90387692532052
"ул. Лухмановская, д. 22, Москва",9004.00,2007,24,,,55.7208328,37.9053130503663
"ул. Лухмановская, д. 27, Москва",18339.30,2010,24,2,368,55.72320740000001,37.90132785
"ул. Лухмановская, д. 28, Москва",9132.60,2007,24,,,55.7216194,37.9077586498192
"ул. Лухмановская, д. 30, Москва",9066.50,2006,24,,,55.72233045,37.90853587467949
"ул. Лухмановская, д. 32, Москва",8934.00,2007,24,1,184,55.7223668,37.909998925185505
"ул. Лухмановская, д. 35, Москва",18452.90,2007,24,,,55.7240285,37.90753185
"ул. Маршала Захарова, д. 20, Москва",22904.00,2001,24,3,265,55.61921475,37.69638149264869
"ул. Маршала Тухачевского, д. 49, Москва",62849.30,2009,24,,,55.7851698,37.4642808
"ул. Маршала Тухачевского, д. 55, Москва",11754.80,2005,24,5,395,55.7838358,37.4590885
"ул. Маршала Чуйкова, д. 10, к. 2, Москва",17272.10,2006,24,,,55.702933099999996,37.761333193049964
"ул. Мироновская, д. 46, к. 1, Москва",41465.90,2013,24,,,55.7928075,37.7335042
"ул. Митинская, д. 33, Москва",13047.30,2003,24,1,132,55.8476121,37.3561415
"пр-кт. Мичуринский, д. 3, Москва",44762.00,2008,24,,,55.7044347,37.5126323
"ш. Можайское, д. 22, к. 1, 2, Москва",28994.00,2009,24,,,,
"ул. Москворечье, д. 4, к. 6, Москва",34224.00,2008,24,4,552,55.64332335,37.65484769723378
"ул. Народного Ополчения, д. 11, Москва",64913.00,2012,24,,,55.7723175,37.47426470983835
"ул. Народного Ополчения, д. 33, Москва",11503.60,2014,24,1,189,55.785449299999996,37.47988289074307
"ул. Нижегородская, д. 25, Москва",37472.00,2007,24,,,55.7372486,37.6935059
"ул. Новаторов, д. 4, Москва",15432.80,2009,24,2,207,55.6693545,37.5217369
"ул. Новаторов, д. 4, к. 5, Москва",27428.00,2013,24,,,55.666085949999996,37.517742064691255
"ул. Новаторов, д. 6, Москва",40097.00,2008,24,,,55.6678978,37.5240839
"ул. Новгородская, д. 37, Москва",32244.00,2006,24,4,320,55.9053993,37.5785074
"ул. Новомарьинская, д. 32, Москва",17746.00,2002,24,,,55.659369749999996,37.771755658451696
"ул. Новомарьинская, д. 38, Москва",9214.00,2002,24,,,55.66117345,37.77348895309154
"ул. Новочеремушкинская, д. 34, к. 1, Москва",27514.30,2005,24,2,222,55.67734965,37.571566417930924
"ул. Новочеремушкинская, д. 55, к. 2, Москва",26498.50,2011,24,,,55.6706632,37.5698492
"ул. Новочеремушкинская, д. 59, к. 1, Москва",8825.00,2005,24,1,161,55.66853325,37.567687832303825
"ул. Островитянова, д. 9, к. 3, Москва",11139.90,2004,24,,,55.6453652,37.49764858004995
"ул. Островитянова, д. 53, Москва",63488.00,2003,24,7,519,55.636001,37.541287
"ул. Панферова, д. 4, Москва",34028.00,2013,24,,,55.6827856,37.5417373
"ул. Перерва, д. 72, Москва",11737.40,2004,24,,,55.668401200000005,37.775158265015406
"ул. Петрозаводская, д. 24, к. 2, Москва",25924.00,2009,24,4,317,55.8684344,37.494606000000005
"ул. Покрышкина, д. 8, Москва",159816.00,2009,24,,,55.6655372,37.4720965
"ул. Полярная, д. 4, к. 2, Москва",9396.00,2008,24,,,55.87278795,37.63961755062881
"ул. Полярная, д. 16, к. 2, Москва",9447.00,2005,24,1,163,55.87665055,37.639194359681156
"ул. Привольная, д. 56, Москва",38247.10,2009,24,,,55.68414135,37.840687701131785
"ул. Профсоюзная, д. 25, Москва",16135.50,2009,24,3,276,55.674117800000005,37.560680510920506
"ул. Псковская, д. 5, к. 1, Москва",11203.00,2007,24,,,55.9040757,37.54928782306653
"ул. Псковская, д. 5, к. 4, Москва",14772.30,2007,24,2,253,55.9060085,37.5480814
"ул. Псковская, д. 9, к. 1, Москва",10681.00,2007,24,,,55.9059928,37.5520428
"ул. Раменки, д. 20, Москва",42769.60,2008,24,,,55.6891298,37.48775713661946
"ш. Рублевское, д. 70, к. 5, Москва",33239.30,2016,24,3,348,55.77083175,37.37481709050367
"ш. Рублевское, д. 70, к. 6, Москва",26052.20,2017,24,,,55.7708439,37.3769528
"ш. Рублевское, д. 70, к. 7, Москва",26142.70,2017,24,,,55.7710158,37.377587871088714
"проезд. Русанова, д. 31, Москва",17707.00,2016,24,2,347,55.8565911,37.6391195570853
"пр-кт. Рязанский, д. 97, к. 2, Москва",11307.80,2014,24,,,55.7147884,37.80980051266921
"пр-кт. Севастопольский, д. 28, к. 8, Москва",16178.60,2007,24,2,150,55.664465899999996,37.57600994921577
"б-р. Симферопольский, д. 24, к. 6, Москва",8721.30,2004,24,,,55.64808565,37.603801323125765
"б-р. Симферопольский, д. 24, к. 3, Москва",8910.00,2005,24,1,184,55.6471633,37.603683075009414
"ул. Скобелевская, д. 5, Москва",8914.50,2003,24,,,55.5497408,37.555721
"ул. Скобелевская, д. 5, к. 1, Москва",8935.61,2003,24,,,55.5492924,37.5564865
"ул. Скобелевская, д. 19, Москва",9052.90,2003,24,1,138,55.547448849999995,37.55633615
"ул. Скобелевская, д. 19, к. 1, Москва",8974.00,2002,24,,,55.547955,37.5570582
"ул. Староволынская, д. 12, к. 5, Москва",51955.00,2010,24,,,55.715495,37.478967
"ул. Столетова, д. 15, Москва",14028.00,2012,24,1,110,55.7026391,37.4992652
"ул. Толбухина, д. 11, к. 2, Москва",25901.00,2003,24,,,55.72180865,37.39835033977751
"ул. Туристская, д. 33, к. 2, Москва",9362.10,2005,24,1,184,55.8584689,37.418556408067396
"ул. Удальцова, д. 69, Москва",30262.00,2006,24,,,55.679143350000004,37.49954077528323
"ул. Фестивальная, д. 17, к. 1, Москва",12279.00,2004,24,1,140,55.8562881,37.4786008
"ул. Херсонская, д. 41, Москва",14656.00,2005,24,,,55.6548189,37.55920017805663
"проезд. Шмитовский, д. 16, стр. 2, Москва",86187.40,2007,24,,,55.7560386,37.5266812
"проезд. Шокальского, д. 3, к. 2, Москва",9460.00,2006,24,1,161,55.8733,37.64445086841191
"проезд. Шокальского, д. 7, к. 1, Москва",9414.00,2005,24,,,55.874565149999995,37.6442867484362
"проезд. Шокальского, д. 13, Москва",9280.00,2005,24,,,55.8764366,37.64410160614294
"ш. Щелковское, д. 69, к. 1, Москва",16269.50,2010,24,2,184,55.8115248,37.79499912090053
"ул. Щукинская, д. 2, Москва",83387.30,2008,24,,,55.8099085,37.4830987
"ул. Ягодная, д. 4, Москва",24280.50,2012,24,4,325,55.57735065,37.67581199971866
"ул. Ягодная, д. 6, Москва",23562.80,2012,24,,,55.57655525,37.67596575191105
"ул. Ягодная, д. 8, к. 1, Москва",46840.80,2011,24,7,560,55.57664695,37.673354292339354
"ул. Ягодная, д. 8, к. 2, Москва",25402.80,2011,24,,,55.5758437,37.67393101795555
"ул. Ягодная, д. 8, к. 3, Москва",20445.60,2011,24,,,55.5751616,37.674498690406026
"ул. Ярцевская, д. 34, к. 2, Москва",43905.00,2019,24,1,284,55.7407211,37.4157913
"г. Зеленоград, к. 311, Москва",12687.00,2005,23,,,56.0005637,37.21365742692939
"ул. Филевская 3-я, д. 8, к. 2, Москва",10003.00,2007,23,,,55.7397789,37.49997509506087
"ул. Авиамоторная, д. 15, Москва",9570.00,2014,23,1,154,55.7604594,37.71573556492538
"ул. Академика Пилюгина, д. 4, Москва",53700.70,2007,23,,,55.6731139,37.54281039507873
"ул. Академика Пилюгина, д. 24, к. 1, Москва",14293.00,2002,23,1,75,55.6711899,37.53210948841252
"наб. Академика Туполева, д. 15, Москва",64674.00,2008,23,,,55.760308,37.6796374
"ул. Академика Янгеля, д. 2, Москва",82316.00,2014,23,7,912,55.59632,37.599796
"ул. Алабяна, д. 13, к. 1, Москва",43915.20,2007,23,,,55.7996729,37.506336670563726
"ул. Алабяна, д. 13, к. 2, Москва",32693.90,2008,23,,,55.79921535,37.50664423469222
"ул. Беломорская, д. 12, к. 1, Москва",17908.90,2009,23,2,176,55.862001500000005,37.470558649999994
"ул. Беломорская, д. 18, к. А, Москва",10844.50,2006,23,,,55.8621695,37.4644799
"проезд. Березовой Рощи, д. 4, Москва",11464.40,2006,23,,,55.7867244,37.52011377971829
"проезд. Березовой Рощи, д. 6, Москва",11952.40,2006,23,1,98,55.78721925,37.519753120897775
"проезд. Березовой Рощи, д. 8, Москва",11397.80,2008,23,,,55.7878168,37.5191625
"проезд. Березовой Рощи, д. 10, Москва",32932.60,2006,23,5,277,55.7889286,37.51902503183993
"ул. Богданова, д. 2, к. 1, Москва",37924.00,2007,23,,,55.656123,37.4041211
"ул. Богданова, д. 6, к. 1, Москва",35233.00,2007,23,8,488,55.6557082,37.4019551
"ул. Очаковская Б., д. 44, Москва",14831.92,2017,23,,,55.6757562,37.444048223038536
"ш. Варшавское, д. 94, Москва",34643.00,2007,23,,,55.6472106,37.618655356036776
"ул. Васильцовский Стан, д. 3, к. 1, Москва",20672.00,2006,23,3,264,55.7131406,37.75137135923083
"ул. Васильцовский Стан, д. 10, к. 1, Москва",20714.00,2006,23,,,55.7157453,37.7541357
"ул. Васильцовский Стан, д. 11, Москва",41745.62,2007,23,,,55.7161906,37.7528085
"ул. Веерная, д. 1, к. 7, Москва",11826.00,2005,23,1,172,50.2741038,57.2078718
"ул. Веерная, д. 2, Москва",12843.70,2004,23,,,50.2741038,57.2078718
"ул. Веерная, д. 4, к. 2, Москва",13090.00,2007,23,1,176,50.2741038,57.2078718
"ул. Веерная, д. 6, Москва",40356.80,2013,23,,,50.2741038,57.2078718
"пр-кт. Вернадского, д. 63, Москва",11228.00,2014,23,1,174,55.671755399999995,37.50130987884212
"пр-кт. Вернадского, д. 65, Москва",11026.00,2014,23,,,55.671075,37.50290184788129
"пр-кт. Вернадского, д. 67, Москва",10684.10,2017,23,,,55.670847699999996,37.504465947881286
"пр-кт. Вернадского, д. 69, Москва",10740.60,2016,23,1,176,55.6708961,37.50608109923956
"б-р. Волжский, д. 3, к. 1, Москва",13819.00,2008,23,,,55.719093900000004,37.744726450000016
"б-р. Волжский, д. 3, к. 2, Москва",13863.00,2008,23,,,55.7185307,37.7444613
"б-р. Волжский, д. 5, к. 1, Москва",20770.00,2007,23,3,264,55.7178131,37.7449816
"б-р. Волжский, д. 11, Москва",41525.00,2006,23,,,55.71466705,37.74766260614956
"ул. Выборгская, д. 7, к. 1, Москва",14236.60,2016,23,1,242,55.835387850000004,37.495837042423894
"ул. Выборгская, д. 7, к. 2, Москва",13789.90,2016,23,,,55.83584015,37.495241030741184
"ул. Генерала Глаголева, д. 15, к. 1, Москва",9104.60,2016,23,1,152,55.7829174,37.46139332210926
"ул. Главмосстроя, д. 5, Москва",70297.00,2016,23,,,55.6526137,37.4077139
"ул. Главмосстроя, д. 7, Москва",49460.00,2011,23,,,55.6541853,37.4057856
"ул. Гризодубовой, д. 2, Москва",33321.00,2007,23,5,294,55.78264195,37.53218620201149
"ул. Давыдковская, д. 16, Москва",38084.50,2007,23,,,55.72092135,37.466214607276314
"ул. Днепропетровская, д. 25, к. 1, Москва",23749.70,2009,23,,,55.6216226,37.58573178515333
"ул. Екатерины Будановой, д. 5, Москва",26770.00,2010,23,1,252,55.7321575,37.427422771660886
"ул. Жигулевская, д. 14, к. 2, Москва",9192.00,2009,23,,,55.709042,37.76231248619423
"ш. Иваньковское, д. 5, Москва",44007.00,2003,23,3,Не указано,55.819976249999996,37.46593415388509
"ул. Кастанаевская, д. 24, Москва",16436.20,2007,23,,,55.7386406,37.4906195
"ул. Козлова, д. 34, Москва",18729.30,2008,23,1,132,55.7178979,37.447533250000006
"ул. Красноказарменная, д. 14А, к. 2, Москва",99058.10,2018,23,,,55.7527459,37.7076305
"пр-кт. Ломоносовский, д. 7, к. 5, Москва",15717.00,2000,23,,,55.6846283,37.54563255496204
"пр-кт. Ломоносовский, д. 41, к. 1, Москва",15900.00,2006,23,1,84,55.706016149999996,37.5066502500424
"пр-кт. Ломоносовский, д. 41, к. 2, Москва",10674.00,2006,23,,,55.70571095,37.507188483088235
"б-р. Маршала Рокоссовского, д. 39, к. 1, Москва",17645.00,2002,23,,,55.8180838,37.7114913
"пр-кт. Мичуринский, д. 13, Москва",10775.00,2005,23,1,220,55.6982089,37.5112944
"пр-кт. Мичуринский, д. 13, к. 1, Москва",10759.00,2006,23,,,55.6978985,37.512584440457324
"пр-кт. Мичуринский, д. 13, к. 2, Москва",10810.00,2007,23,1,220,55.69754575,37.51264878663891
"пр-кт. Мичуринский, д. 13, к. 3, Москва",10749.00,2007,23,,,55.69718075,37.512680149999994
"пр-кт. Мичуринский, д. 26, Москва",106948.90,2014,23,5,663,55.7000778,37.5019094
"ул. Мичуринский проспект.Олимпийская деревня, д. 1, к. 1, Москва",91217.50,2011,23,,,55.673501,37.4633976
"ш. Можайское, д. 6, к. 1, Москва",33680.00,2009,23,,,55.7224633,37.438718589837904
"ул. Молодогвардейская, д. 15, Москва",42520.00,2008,23,6,,55.73319325,37.42738638537193
"ул. Молодцова, д. 29, к. 2, Москва",20329.00,2008,23,,,55.8786736,37.6243417
"ул. Наримановская, д. 8, Москва",24399.00,2008,23,,,55.8146459,37.70339171386054
"ш. Новокуркинское, д. 51, Москва",62741.00,2005,23,14,748,55.9086288,37.3887759
"ул. Новочеремушкинская, д. 18, Москва",13081.00,2000,23,,,55.682803,37.57939086949339
"пр-кт. Новоясеневский, д. 9, Москва",143390.30,2014,23,4,584,55.6089841,37.5365791
"ул. Одесская, д. 22, к. 5, Москва",19944.00,2004,23,,,55.6528238,37.58656366597128
"ул. Окская, д. 1, к. 1, Москва",42260.00,2005,23,8,584,55.7119796,37.7521594
"ул. Окская, д. 3, к. 2, Москва",20735.00,2006,23,,,55.71394975,37.75467417366117
"ул. Окская, д. 3, к. 1, Москва",43263.00,2006,23,,,55.7131135,37.7554516
"ул. Окская, д. 5, к. 1, Москва",42981.00,2006,23,8,584,55.7133347,37.7564445
"ул. Окская, д. 5, к. 3, Москва",20729.00,2006,23,,,55.7148675,37.75661354000371
"ул. Островитянова, д. 6, Москва",34770.00,2006,23,,,55.6443432,37.490609259448476
"ул. Отрадная, д. 10, Москва",11420.00,2001,23,1,108,55.856802849999994,37.60943715
"ул. Отрадная, д. 18, к. 1, Москва",12122.50,2005,23,,,55.855099949999996,37.614980160196
"ул. Производственная, д. 2, Москва",35313.00,2006,23,4,239,55.650606,37.3881133
"пр-кт. Пролетарский, д. 7, Москва",31716.30,2005,23,,,55.645663549999995,37.65779873944844
"ул. Профсоюзная, д. 91, Москва",44030.00,2004,23,6,370,55.64129165,37.52713060279808
"ул. Профсоюзная, д. 104, Москва",109201.60,2006,23,,,55.6423755,37.5243508
"ул. Пырьева, д. 9, к. 2, Москва",18615.00,2006,23,,,55.727112500000004,37.524163849999994
"ш. Рублевское, д. 70, к. 2, Москва",7858.10,2017,23,1,115,55.76955675,37.37664141081514
"ш. Рублевское, д. 109, Москва",18563.00,2009,23,,,55.745328549999996,37.41710945
"ул. Саратовская, д. 22, Москва",62041.00,2007,23,,,55.717211750000004,37.74759836830762
"ул. Саратовская, д. 24, Москва",20714.00,2008,23,3,264,55.71742295,37.74946855000002
"ул. Саратовская, д. 31, Москва",36200.00,2007,23,,,55.7183688,37.7469493
"пр-кт. Севастопольский, д. 28, к. 3, Москва",16230.30,2008,23,2,130,55.663865799999996,37.57621355926343
"ул. Соловьиная Роща, д. 10, Москва",26556.00,2007,23,,,55.8928956,37.40018120889785
"ул. Староволынская, д. 12, к. 3, Москва",35725.80,2010,23,1,166,55.71477765,37.47613097152178
"ул. Староволынская, д. 12, к. 4, Москва",43415.60,2013,23,,,55.7155474,37.4767417
"ул. Старокрымская, д. 15, к. 2, Москва",56930.30,2016,23,,,55.5574408,37.558283855760976
"ул. Старокрымская, д. 15, к. 1, Москва",84455.00,2017,23,11,1012,55.55803485,37.55747576760969
"ул. Старокрымская, д. 17, Москва",42539.40,2016,23,,,55.558547700000005,37.559465499999995
"ул. Столетова, д. 7, Москва",27526.00,2009,23,,,55.7039152,37.5028331
"ул. Столетова, д. 9, Москва",14105.00,2010,23,1,110,55.7037917,37.5013383
"ул. Столетова, д. 17, Москва",27591.00,2010,23,,,55.7016069,37.4988136
"ул. Сходненская, д. 16, Москва",12408.10,2010,23,1,132,55.8419973,37.4395866
"ул. Твардовского, д. 12, к. 2, Москва",34724.20,2012,23,,,55.7932378,37.3976046036794
"ул. Твардовского, д. 12, к. 3, Москва",47299.50,2013,23,6,618,55.79340635,37.40185478270775
"ул. Твардовского, д. 14, к. 1, Москва",Не заполнено,2006,23,,,55.794327100000004,37.40397926018265
"ул. Твардовского, д. 14, к. 3, Москва",13250.40,2006,23,,,55.7943426,37.40591573142487
"ул. Теплый Стан, д. 7, Москва",18791.75,2006,23,2,198,55.6225977,37.49615218108117
"ул. Удальцова, д. 27, Москва",28784.80,2004,23,,,55.67420305,37.509972950483906
"пер. Факультетский, д. 6, Москва",17680.00,2005,23,,,55.8114367,37.496894271162205
"ул. Херсонская, д. 43, Москва",83084.00,2012,23,7,682,55.6592667,37.5619387
"ул. Часовая, д. 19, к. 3, Москва",21742.00,2008,23,,,55.808779200000004,37.521664689035305
"ул. Часовая, д. 23, к. 1, Москва",21591.80,2008,23,3,236,55.8099511,37.5216852
"б-р. Чонгарский, д. 26А, к. 3, Москва",10345.20,2017,23,,,55.6534732,37.6190159
"ш. Энтузиастов, д. 86 А, к. 1, Москва",23008.00,2018,23,1,160,55.75812,37.753248
"ш. Энтузиастов, д. 86 А, к. 2, Москва",8716.20,2018,23,,,55.75812,37.753248
"ш. Энтузиастов, д. 86 А, к. 3, Москва",13778.90,2018,23,,,,
"ул. Яблочкова, д. 16, Москва",26891.00,2008,23,3,255,55.8200669,37.5814953
"ш. Ярославское, д. 124, Москва",29626.90,2007,23,,,55.8705285,37.7139865
"ул. Ярцевская, д. 33, к. 2, Москва",19140.40,2018,23,,,55.7443095,37.415108169449425
"кв-л. Юго-Запада 38-й, к. 1, Москва",30011.50,2002,22,5,434,,
"кв-л. Юго-Запада 38-й, к. 3, Москва",18077.10,2002,22,,,,
"г. Зеленоград, д. 1804, к. 1804а, Москва",5936.00,2001,22,1,84,55.97851355,37.16612101684642
"г. Зеленоград, к. 1804А, Москва",6733.90,2000,22,,,55.97851355,37.16612101684642
"мкр. Чертаново Северное, д. 1, к. 1, Москва",30597.20,2002,22,4,340,55.6363381,37.600337717592595
"ул. Парковая 10-я, д. 3, Москва",23674.90,2010,22,,,55.794599,37.80204667564885
"ул. Филевская 2-я, д. 6, Москва",26907.00,2018,22,,,55.7358663,37.493917
"пер. Лихачевский 3-й, д. 7, к. 4, Москва",9181.60,2002,22,1,83,55.8496808,37.51578746774432
"пер. Михалковский 3-й, д. 16, к. 1, Москва",5954.80,2002,22,,,55.83672315,37.52683668512166
"ул. Гражданская 3-я, д. 3А, Москва",25641.90,2009,22,,,55.81341855,37.70483475
"ул. Соколиной Горы 8-я, д. 8, к. 2, Москва",36086.80,2007,22,8,Не указано,55.76634885,37.73609279321819
"ул. Авиаконструктора Микояна, д. 14, к. 4, Москва",38651.00,2007,22,,,55.793642750000004,37.524475763662814
"ул. Азовская, д. 9, к. 2, Москва",15144.00,2005,22,3,252,55.657958300000004,37.6020722
"ул. Академика Анохина, д. 58, к. 1, Москва",9323.00,2006,22,,,55.650679,37.46839334051536
"ул. Академика Анохина, д. 58, к. 2, Москва",9449.00,2005,22,2,124,55.6500397,37.468042661231884
"ул. Академика Комарова, д. 3, к. 2, Москва",10379.00,2010,22,,,55.828125150000005,37.595390575090825
"ул. Академика Понтрягина, д. 11, к. 1, Москва",14244.00,2007,22,,,55.53560105,37.502260830301395
"ул. Академика Понтрягина, д. 11, к. 3, Москва",14230.00,2007,22,2,172,55.5346067,37.503020597812835
"ул. Академика Понтрягина, д. 21, к. 1, Москва",12231.40,2007,22,,,55.53288615,37.50369453971817
"ул. Академика Янгеля, д. 1, к. 1, Москва",48900.00,2013,22,,,55.59413385,37.59811400556798
"ул. Академика Янгеля, д. 3, к. 2, Москва",21079.00,2010,22,4,336,55.59371585,37.59617383730786
"ш. Алтуфьевское, д. 77, к. 1, Москва",20669.70,2011,22,,,55.8776544,37.58072993295455
"ш. Алтуфьевское, д. 85, Москва",19468.00,2011,22,2,219,55.89132685,37.585513425658775
"ул. Анны Ахматовой (п Внуковское), д. 14, Москва",33119.60,2016,22,,,55.6352371,37.33057003532409
"ул. Анны Ахматовой (п Внуковское), д. 16, Москва",33067.00,2016,22,4,393,55.634643249999996,37.328887861030466
"г. Щербинка, ул. Барышевская Роща, д. 10, Москва",15173.30,2016,22,,,55.5036476,37.5355288
"г. Щербинка, ул. Барышевская Роща, д. 18, Москва",15695.50,2015,22,,,55.5031996,37.5371791
"г. Щербинка, ул. Барышевская Роща, д. 22, Москва",15571.70,2015,22,1,231,55.50142755,37.53544598905307
"ул. Барышиха, д. 14, к. 2, Москва",7010.10,2004,22,,,55.8411833,37.35828880729376
"ул. Барышиха, д. 14, к. 3, Москва",20856.30,2004,22,,,55.8420772,37.358247
"п. Сосенское, п. Коммунарка, ул. Бачуринская, д. 13, Москва",19955.70,2016,22,2,440,,
"ул. Беловежская, д. 21, к. 2, Москва",9637.00,2010,22,,,55.71311815,37.39438515016691
"ул. Беловежская, д. 39, к. 6, Москва",11567.00,2003,22,2,168,55.71108915,37.396552650000004
"ул. Беловежская, д. 83, Москва",12657.00,2008,22,,,55.705443700000004,37.39902255
"ул. Белореченская, д. 22/66, Москва",15587.30,2000,22,3,236,55.6655437,37.7680146
"ул. Белореченская, д. 28, к. 2, Москва",15576.00,2000,22,,,55.663201099999995,37.769152137018494
"аллея. Березовая, д. 3, Москва",10271.10,2015,22,,,55.853170750000004,37.60821564999999
"б-р. Бескудниковский, д. 11, к. 2, Москва",9527.00,2016,22,2,189,55.862598500000004,37.55868767577766
"б-р. Бескудниковский, д. 30, к. 4, Москва",21640.90,2006,22,,,55.8694869,37.5592967
"ул. Декабрьская Б., д. 1, Москва",8265.30,2005,22,,,55.7646312,37.559866
"ул. Набережная Б., д. 9, Москва",Не заполнено,2004,22,2,Не указано,56.2478207,37.5094509
"ул. Борисовские Пруды, д. 5, к. 1, Москва",50330.00,2009,22,,,55.6364126,37.71340574396093
"ул. Борисовские Пруды, д. 10, к. 6, Москва",21647.90,2000,22,2,349,55.6327611,37.7420577
"ул. Бутлерова, д. 4, Москва",18493.00,2009,22,,,55.65311285,37.5252311
"ул. Бутлерова, д. 4, к. 1, Москва",15769.00,2008,22,2,236,55.653053549999996,37.52411340438722
"ул. Вавилова, д. 2, Москва",23966.30,2008,22,,,55.70963555,37.59185021957961
"ул. Вавилова, д. 56, Москва",11190.00,2008,22,,,55.6885222,37.55589965
"ш. Варшавское, д. 152, к. 1, Москва",35915.80,2006,22,7,540,55.59259605,37.598950296274126
"ш. Варшавское, д. 160, к. 1, Москва",25146.40,2011,22,,,55.58317375,37.59330980334374
"ул. Ватутина, д. 7, к. 2, Москва",7739.70,2005,22,,,55.7210642,37.45644204647239
"ул. Ватутина, д. 9, Москва",14657.00,2008,22,1,125,55.721347,37.45464703883249
"ул. Ватутина, д. 11, Москва",9980.00,2007,22,,,55.7207601,37.45389953881453
"ул. Введенского, д. 26, Москва",7507.00,2001,22,1,175,55.6356942,37.5343968
"ул. Введенского, д. 32, Москва",13187.00,2001,22,,,55.63456895,37.530687881656746
"ул. Веерная, д. 22, к. 1, Москва",11548.60,2003,22,1,125,50.2741038,57.2078718
"ул. Веерная, д. 22, к. 2, Москва",12917.80,2003,22,,,50.2741038,57.2078718
"ул. Веерная, д. 22, к. 3, Москва",8100.00,2003,22,,,50.2741038,57.2078718
"ул. Веерная, д. 46, к. 1, Москва",6839.00,2006,22,1,78,50.2741038,57.2078718
"пр-кт. Вернадского, д. 27, Москва",27681.40,2009,22,,,55.681712950000005,37.51840789151146
"пр-кт. Вернадского, д. 52, Москва",14798.00,2017,22,,,55.6704277,37.4951367
"пр-кт. Вернадского, д. 58, Москва",16345.50,2017,22,4,288,55.6727022,37.4941704
"пр-кт. Вернадского, д. 92, Москва",83478.60,2003,22,,,55.6553941,37.4724784
"ул. Верхние Поля, д. 22, к. 1, Москва",51090.00,2001,22,7,542,55.66356005,37.74856402144993
"ул. Верхние Поля, д. 28, Москва",42380.00,2000,22,,,55.6664503,37.755765457490654
"ул. Верхние Поля, д. 36, к. 2, Москва",39720.80,2000,22,6,514,55.667632,37.7642843
"ул. Вешняковская, д. 25, к. 1, Москва",10145.60,2012,22,,,55.7256882,37.830733
"ул. Вилиса Лациса, д. 42, Москва",40128.90,2000,22,,,55.856015850000006,37.40594472045273
"ул. Винокурова, д. 12, к. 5, Москва",6437.80,2005,22,1,84,55.6862097,37.58803893319518
"проезд. Высоковольтный, д. 1, к. 3, Москва",17510.00,2009,22,,,55.873467700000006,37.591039129186875
"проезд. Высоковольтный, д. 1, к. 4, Москва",9888.00,2009,22,,,55.874022249999996,37.5917211154201
"проезд. Высоковольтный, д. 1, к. 5, Москва",11610.00,2009,22,2,168,55.8746179,37.5912452
"проезд. Высоковольтный, д. 1, к. 6, Москва",21914.00,2009,22,,,55.87513905,37.590253522775974
"ул. Вяземская, д. 18, к. 1, Москва",13475.50,2013,22,3,261,55.711221949999995,37.404156526235084
"ул. Гарибальди, д. 2, к. 1, Москва",13825.00,2007,22,,,55.67714455,37.53362838119395
"ул. Гарибальди, д. 15, Москва",52301.00,2008,22,5,231,55.6752259,37.54591467565383
"ул. Генерала Белова, д. 17, Москва",11615.00,2000,22,,,55.6206973,37.71803049970387
"б-р. Генерала Карбышева, д. 18, Москва",22503.10,2002,22,,,55.781534699999995,37.472125681153855
"ул. Герасима Курина, д. 16, Москва",28805.00,2004,22,5,420,55.73157855,37.47181094622134
"ул. Герасима Курина, д. 18, Москва",9086.00,2005,22,,,55.73100855,37.46930072329894
"ул. Героев Панфиловцев, д. 5, Москва",5110.70,2006,22,,,55.8548054,37.4370859
"ул. Героев Панфиловцев, д. 7, к. 4, Москва",4996.70,2006,22,1,86,55.85607135,37.43370485
"ул. Героев Панфиловцев, д. 9, к. 4, Москва",12861.40,2006,22,,,55.85317205,37.43161395093959
"ул. Героев Панфиловцев, д. 11, к. 1, Москва",4985.50,2008,22,1,86,55.85745465,37.42919152978859
"ул. Героев Панфиловцев, д. 17, к. 2, Москва",12624.80,2005,22,,,55.854998,37.4268324
"ул. Грекова, д. 22, Москва",13943.40,2014,22,3,258,55.891988850000004,37.66288097584257
"пер. Грохольский, д. 28, Москва",20489.01,2001,22,,,55.7765853,37.639468
"ул. Давыдковская, д. 18, Москва",24169.40,2012,22,,,55.7208847,37.463303800000006
"ул. Дегунинская, д. 3, к. 2, Москва",12564.20,2006,22,1,168,55.8636581,37.5373194
"ул. Дегунинская, д. 3, к. 3, Москва",12634.80,2008,22,,,55.863055,37.53774857440048
"ш. Дмитровское, д. 165Е, к. 1, Москва",22420.00,2009,22,,,55.9246895,37.5438398
"ш. Дмитровское, д. 165Е, к. 6, Москва",21172.00,2008,22,4,284,55.9254783,37.5441414
"ш. Дмитровское, д. 165Е, к. 7, Москва",22763.00,2009,22,,,55.9262333,37.5445004
"ул. Дубнинская, д. 27, к. 2, Москва",22020.90,2003,22,3,261,55.86423835,37.562961562197486
"ул. Дубнинская, д. 37, к. 2, Москва",20846.30,2005,22,,,55.8665706,37.5606633
"ул. Дыбенко, д. 2, Москва",17050.80,2002,22,3,252,55.867359,37.486697
"ул. Енисейская, д. 5, Москва",18177.00,2004,22,,,55.8589869,37.6595507
"проезд. Заревый, д. 15, к. 2, Москва",11678.00,2002,22,,,55.8866594,37.654627973569134
"ул. Зеленоградская, д. 19, к. 1, Москва",10045.70,2001,22,2,174,55.8717235,37.49705230000001
"ул. Зеленоградская, д. 33, к. 7, Москва",13024.10,2002,22,,,55.8728841,37.48769705631681
"ул. Зеленодольская, д. 36, к. 1, Москва",41461.00,2004,22,,,55.709424,37.767846481114034
"ул. Ивана Сусанина, д. 10, Москва",15072.30,2001,22,2,168,55.871703,37.5288313
"ул. Ивантеевская, д. 3, к. 1, Москва",10210.00,2001,22,,,55.82152525,37.71688973184699
"проезд. Игарский, д. 19, Москва",18336.10,2002,22,3,258,55.85785045,37.63493904482377
"ул. Истринская, д. 4, Москва",9701.30,2011,22,,,55.7360601,37.43183313480198
"ул. Истринская, д. 6, Москва",6437.70,2006,22,1,219,55.73646455,37.432416599999996
"ул. Истринская, д. 8, к. 3, Москва",83795.00,2012,22,,,55.7354851,37.4323883
"ул. Кастанаевская, д. 18, Москва",15016.40,2013,22,,,55.7388097,37.49141517386995
"ул. Кастанаевская, д. 41, Москва",21774.60,2008,22,4,307,55.7333323,37.4687844
"ул. Каховка, д. 18, к. 1, Москва",48514.40,2003,22,,,55.6580129,37.568965797437464
"ул. Каховка, д. 31, Москва",11004.00,2010,22,,,55.6574323,37.5674781
"ул. Кашенкин Луг, д. 6, к. 1, Москва",9693.00,2010,22,2,160,55.8250617,37.5978729
"ул. Кашенкин Луг, д. 6, к. 2, Москва",9738.00,2010,22,,,55.82537635,37.597544787967905
"ул. Кашенкин Луг, д. 8, к. 1, Москва",14226.00,2010,22,3,228,55.8254065,37.5943364
"ул. Кашенкин Луг, д. 8, к. 2, Москва",9713.00,2010,22,,,55.825437,37.596433611941166
"ул. Кировоградская, д. 24, Москва",19616.90,2007,22,2,252,55.6138561,37.6025162
"ул. Клязьминская, д. 11, к. 1, Москва",9151.80,2004,22,,,55.887760650000004,37.52416503630619
"ул. Краснобогатырская, д. 9, Москва",30325.00,2007,22,,,55.8172371,37.6931632
"проезд. Красностуденческий, д. 4, к. 2, Москва",22188.00,2003,22,3,259,55.825759250000004,37.56543065000002
"ул. Кременчугская, д. 3, к. 2, Москва",8991.50,2006,22,,,55.724127100000004,37.463014900000005
"ул. Кременчугская, д. 3, к. 3, Москва",26106.10,2007,22,,,55.7237791,37.464049900000006
"ул. Кременчугская, д. 3, к. 4, Москва",18288.50,2007,22,3,252,55.72431625,37.465329002724545
"ул. Кременчугская, д. 5, к. 3, Москва",28926.20,2005,22,,,55.722390149999995,37.46295227309912
"ул. Кременчугская, д. 7, к. 2, Москва",28760.70,2006,22,4,336,55.72182455,37.46352140533496
"ул. Кременчугская, д. 7, к. 3, Москва",13425.10,2006,22,,,55.72205645,37.46489997916875
"ул. Крылатские Холмы, д. 33, к. 3, Москва",12800.00,2004,22,1,Не указано,55.758108699999994,37.41916653492464
"ул. Кутузова, д. 11, к. 4, Москва",26118.00,2006,22,,,55.7226517,37.41138127981799
"ш. Ленинградское, д. 118, к. 1, Москва",11347.40,2009,22,,,55.86689435,37.463471078765586
"ш. Ленинградское, д. 120, к. 3, Москва",10850.90,2010,22,1,83,55.86779525,37.4643688
"ш. Ленинградское, д. 124, к. 1, Москва",8543.90,2008,22,,,55.86841149999999,37.4624246356026
"ш. Ленинградское, д. 128, к. 2, Москва",10207.30,2010,22,,,55.8693198,37.46339200579869
"ш. Ленинградское, д. 130, к. 3, Москва",10551.00,2007,22,1,83,55.8707725,37.46238925
"ш. Ленинградское, д. 130, к. 2, Москва",10763.70,2007,22,,,55.86991165,37.46149672876558
"пр-кт. Ленинский, д. 67, к. 1, Москва",15075.00,2013,22,1,119,55.69026815,37.553083846774754
"пр-кт. Ленинский, д. 107, к. 2, Москва",31534.30,2017,22,,,55.66277535,37.51532432365221
"пр-кт. Ленинский, д. 139, Москва",30510.00,2006,22,1,130,55.6411942,37.470503910215044
"ул. Летчика Бабушкина, д. 40, Москва",5038.00,2004,22,,,55.87307615,37.678338128442405
"ул. Липецкая, д. 48, Москва",11617.00,2011,22,,,55.581039,37.680999
"ул. Лобачевского, д. 118, к. 4, Москва",16955.00,2017,22,1,214,55.69330815,37.471484761382776
"ул. Лукинская, д. 14, к. 1, Москва",16788.00,2007,22,,,55.64792735,37.3396966701813
"ул. Лукинская, д. 16, к. 1, Москва",11791.00,2007,22,,,55.64679625,37.338556162235804
"ул. Лукинская, д. 18, к. 1, Москва",11365.00,2007,22,2,171,55.64575895,37.336517795274624
"ул. Ляпидевского, д. 6, к. 3, Москва",11522.70,2000,22,,,55.85665455,37.50109013938105
"ул. Ляпидевского, д. 10, к. 3, Москва",11421.70,2000,22,2,174,55.858007549999996,37.49942176043243
"ул. Филевская М., д. 18, Москва",25215.20,2016,22,,,55.7372001,37.4687969
"ул. Филевская М., д. 22, Москва",55495.00,2018,22,7,611,55.74553125,37.48754061113851
"ул. Филевская М., д. 40, к. 1, Москва",15843.40,2011,22,,,55.7355141,37.45360169999999
"ул. Маломосковская, д. 4, Москва",22255.00,2012,22,,,55.8130586,37.64260173686441
"ул. Маломосковская, д. 21, к. 3, Москва",17692.00,2006,22,1,Не указано,55.81436035,37.64923252927579
"ул. Малышева, д. 13, к. 3, Москва",5139.00,2004,22,,,55.69865705,37.743436831090825
"пр-кт. Маршала Жукова, д. 78, к. 5, Москва",19310.30,2009,22,,,55.78048665,37.45005775535217
"ул. Маршала Захарова, д. 3, Москва",78218.80,2017,22,5,735,55.6226177,37.7068932
"ул. Маршала Кожедуба, д. 6, к. 1, Москва",8366.00,2003,22,,,55.66907005,37.78745447429246
"ул. Маршала Кожедуба, д. 8, Москва",8374.00,2003,22,2,168,55.669530249999994,37.78777870750474
"ул. Маршала Кожедуба, д. 10, Москва",8443.00,2003,22,,,55.67156515,37.7896653329432
"ул. Маршала Кожедуба, д. 12, к. 1, Москва",8378.00,2003,22,2,168,55.672028350000005,37.790150605304106
"ул. Маршала Тухачевского, д. 37/21, Москва",39332.20,2006,22,,,55.784138,37.4709171
"ул. Маршала Тухачевского, д. 41, к. 1, Москва",20339.40,2007,22,,,55.7844012,37.4685769
"ул. Менжинского, д. 29, Москва",21663.00,2000,22,4,329,55.8705156,37.6556819
"ул. Металлургов, д. 62, к. 1, Москва",23921.60,2013,22,,,55.7596142,37.8086623
"ул. Миклухо-Маклая, д. 31, Москва",10214.00,2003,22,,,55.6466088,37.519394
"ул. Миклухо-Маклая, д. 33, Москва",25040.00,2011,22,5,392,55.6458154,37.519697
"ул. Миклухо-Маклая, д. 41, Москва",10243.00,2004,22,,,55.64493225,37.52361883871642
"ул. Миклухо-Маклая, д. 43, Москва",34565.00,2007,22,5,283,55.6443452,37.5232309
"ул. Минская, д. 1Г, к. 1, Москва",50929.00,2005,22,,,55.7128727,37.501445730701946
"ул. Михалковская, д. 15, к. 1, Москва",5718.80,2002,22,1,87,55.8383936,37.52595690769854
"пр-кт. Мичуринский, д. 15, Москва",10058.00,2002,22,,,55.6967221,37.51176204265278
"пр-кт. Мичуринский, д. 16, Москва",53192.00,2010,22,,,55.7021053,37.5055284
"пр-кт. Мичуринский, д. 17, Москва",10066.00,2002,22,2,168,55.69585175,37.51021279757451
"пр-кт. Мичуринский, д. 27, к. 3, Москва",29229.40,2004,22,,,55.6959955,37.50121057098154
"ул. Молодогвардейская, д. 2, к. 1, Москва",12845.00,2001,22,,,55.7338699,37.442520749640856
"ул. Молодцова, д. 15, к. 2, Москва",10160.00,2012,22,2,145,55.87737585,37.63431091110547
"ул. Молодцова, д. 25, к. 2, Москва",16890.00,2010,22,,,55.878097,37.62770919903517
"ул. Мосфильмовская, д. 53, Москва",112090.00,2014,22,14,644,55.7047104,37.4973104
"пр-кт. Нахимовский, д. 47, к. 1, Москва",17425.60,2007,22,,,55.6779035,37.5623587
"пр-кт. Нахимовский, д. 47, к. 2, Москва",11772.00,2009,22,1,66,55.6745937,37.56850150622448
"ул. Нежинская, д. 9, к. 1, Москва",9742.30,2002,22,,,55.7109011,37.4742465
"ул. Некрасовская, д. 5, Москва",10045.00,2007,22,,,55.68137755,37.9229491
"ул. Нижегородская, д. 11, Москва",22631.00,2013,22,5,328,55.738209049999995,37.685049806448546
"ул. Новаторов, д. 4, к. 3, Москва",18672.60,2009,22,,,55.6674743,37.51984485014101
"ул. Новаторов, д. 4, к. 4, Москва",38300.80,2011,22,,,55.66706035,37.518759471812615
"ул. Новаторов, д. 10, к. 1, Москва",21959.20,2009,22,4,310,55.6665325,37.52158773899821
"ул. Новаторов, д. 36, к. 1, Москва",30801.00,2003,22,,,55.6614968,37.5233066
"ул. Новаторов, д. 36, к. 2, Москва",26857.00,2005,22,5,364,55.6622853,37.522085499999996
"ул. Новаторов, д. 36, к. 3, Москва",38420.70,2006,22,,,55.662957399999996,37.522402200711866
"ул. Новаторов, д. 36, к. 5, Москва",34377.30,2005,22,6,472,55.6632067,37.520393000000006
"ул. Новаторов, д. 38, к. 3, Москва",24853.80,2004,22,,,55.6616754,37.5208688
"ул. Новгородская, д. 38, Москва",15238.00,2006,22,,,55.9053898,37.58084205
"ул. Новокосинская, д. 14, к. 7, Москва",10417.30,2004,22,2,168,55.73833355,37.85789458347976
"ул. Новорогожская, д. 22, Москва",11056.00,2004,22,,,55.739596199999994,37.68783815
"ул. Новорогожская, д. 30, Москва",11806.00,2003,22,,,55.7392244,37.68911983934263
"ул. Новороссийская, д. 32, Москва",13060.00,2001,22,2,174,55.6706152,37.76090991513202
"ул. Новороссийская, д. 34, Москва",13020.00,2001,22,,,55.66994005,37.76167042479287
"ул. Новороссийская, д. 38, Москва",13009.00,2001,22,2,174,55.669199199999994,37.76250017517825
"ул. Новочеремушкинская, д. 60, Москва",13844.30,2006,22,,,55.66600805,37.561851889231605
"ул. Обручева, д. 13, Москва",12227.00,2000,22,1,Не указано,55.659748300000004,37.516620501109195
"ул. Обручева, д. 13, к. 1, Москва",12098.30,2001,22,,,55.660360999999995,37.516814860743665
"ул. Обручева, д. 15, к. 1, Москва",12345.00,2001,22,,,55.659284650000004,37.51670829215206
"ул. Обручева, д. 15, к. 2, Москва",12334.00,2000,22,2,150,55.659859999999995,37.51753551074366
"ул. Обручева, д. 22, Москва",8330.30,2005,22,,,55.6580323,37.51643042179997
"ул. Обручева, д. 24, Москва",10040.50,2004,22,,,55.6572696,37.5183402371075
"ул. Обручева, д. 28, к. 8, Москва",8640.00,2004,22,2,168,55.6566639,37.51842605
"ул. Осенняя, д. 18, Москва",16932.00,2001,22,,,55.76704205,37.40577101548675
"ул. Остафьевская, д. 8, к. 1, Москва",14249.00,2007,22,1,171,55.53165625,37.50382753509719
"ул. Островитянова, д. 4, Москва",67106.00,2003,22,,,55.64495475,37.48832574285319
"ул. Островитянова, д. 9, к. 2, Москва",14012.90,2004,22,2,122,55.6451592,37.4984798
"ул. Островитянова, д. 9, к. 5, Москва",14037.20,2004,22,,,55.64507615,37.497181980734894
"ул. Перекопская, д. 34, к. 2, Москва",10223.00,2012,22,,,55.6631835,37.565618021781084
"ул. Перекопская, д. 34, к. 3, Москва",41148.20,2012,22,4,336,55.66332355,37.56689787553394
"ул. Перекопская, д. 34, к. 4, Москва",10130.50,2012,22,,,55.663810999999995,37.567624619373696
"б-р. Перервинский, д. 1, Москва",18662.00,2000,22,,,55.6636292,37.7640077
"б-р. Перервинский, д. 7, к. 2, Москва",15538.80,2001,22,2,333,55.6626856,37.76777937877263
"ул. Петрозаводская, д. 3, Москва",6517.50,2003,22,,,55.86275945,37.50122420863336
"ул. Петрозаводская, д. 8, Москва",8154.00,2002,22,1,82,55.86383,37.5033
"ул. Покровская, д. 37, Москва",10099.00,2009,22,,,55.706418799999994,37.919420200000005
"ул. Покровская, д. 39, Москва",10019.00,2009,22,2,174,55.706693099999995,37.91858866980057
"ул. Покровская, д. 41, Москва",10154.00,2009,22,,,55.706969900000004,37.917726200000004
"ул. Покрышкина, д. 11, Москва",31216.00,2001,22,,,55.66429814999999,37.465866311372835
"ул. Полины Осипенко, д. 10, к. 1, Москва",38051.00,2008,22,7,435,55.779185,37.534346
"ул. Полтавская, д. 47, к. 2, Москва",16838.20,2001,22,,,55.79920545,37.57053972462733
"ул. Поляны, д. 7, Москва",55313.80,2008,22,,,55.552258800000004,37.551606315326836
"ул. Полярная, д. 32, к. 2, Москва",11698.00,2006,22,2,174,55.883099849999994,37.643168130368934
"ул. Полярная, д. 32, к. 3, Москва",11702.00,2006,22,,,55.88265595,37.643938430368934
"проезд. Попов, д. 4, Москва",76798.60,2009,22,8,414,55.7848879,37.697509707315916
"ул. Поречная, д. 27, к. 1, Москва",10307.00,2000,22,,,55.6519464,37.77165325419955
"ул. Производственная, д. 2, к. 1, Москва",36172.00,2005,22,5,411,55.64969945,37.38714275591805
"ул. Производственная, д. 4, Москва",28856.00,2005,22,,,55.648697299999995,37.386512601373646
"ул. Производственная, д. 4, к. 2, Москва",20018.00,2004,22,,,55.64876875,37.38820957891966
"ул. Производственная, д. 4, к. 3, Москва",20018.00,2006,22,3,237,55.64806935,37.38852707500697
"пр-кт. Пролетарский, д. 1, Москва",34254.30,2001,22,,,55.648157049999995,37.658075007651256
"пр-кт. Пролетарский, д. 3, Москва",27621.60,2002,22,,,55.646518,37.6574137
"ул. Профсоюзная, д. 98, к. 12, Москва",10138.00,2002,22,2,171,55.646006400000005,37.52551714999999
"ул. Пырьева, д. 9, к. 3, Москва",26153.00,2005,22,,,55.72681665,37.52271209880166
"ул. Пырьева, д. 9, к. 1, Москва",19206.40,2005,22,1,188,55.72736895,37.52546140800519
"пер. Рогачевский, д. 4, к. 1, Москва",11802.00,2010,22,,,55.867759,37.552842705715875
"ул. Рождественская, д. 15, Москва",8222.30,2012,22,1,174,55.70327055,37.916748999999996
"ул. Рождественская, д. 17, Москва",75751.30,2010,22,,,55.703809199999995,37.916665910615265
"ул. Рождественская, д. 19, к. 1, Москва",8188.60,2012,22,,,55.703661499999995,37.91742035
"ш. Рублевское, д. 11, к. 2, Москва",21416.00,2000,22,3,Не указано,55.7299316,37.450883741754765
"ш. Рублевское, д. 20, к. 3, Москва",29632.40,2000,22,,,55.743182,37.43140235890117
"ш. Рублевское, д. 26, к. 4, Москва",25499.30,2001,22,,,55.7465693,37.42777562449479
"ул. Рудневка, д. 21, Москва",15328.00,2006,22,3,252,55.7176859,37.8870382
"ул. Саморы Машела, д. 6, Москва",11585.50,2003,22,,,55.6483648,37.499638739117145
"ул. Саморы Машела, д. 8, к. 1, Москва",20924.10,2003,22,2,Не указано,55.64751,37.499853633085515
"ул. Саморы Машела, д. 8, к. 3, Москва",12722.50,2003,22,,,55.64638815,37.49995735
"ул. Саянская, д. 14, Москва",11413.00,2000,22,2,168,55.76642125,37.83185521932349
"ул. Сергея Макеева, д. 1, Москва",18095.00,2000,22,,,55.756583649999996,37.54955912152829
"ул. Сивашская, д. 9, Москва",15278.00,2001,22,,,55.659828250000004,37.60393600621367
"ш. Сколковское, д. 30, Москва",18639.00,2007,22,4,Не указано,55.7077868,37.403226399999994
"б-р. Славянский, д. 9, к. 5, Москва",13903.00,2013,22,,,55.7253523,37.468357278973784
"проезд. Соболевский, д. 20А, Москва",6045.00,2002,22,,,55.8372469,37.52550889230145
"проезд. Ставропольский, д. 9, Москва",5139.00,2006,22,1,84,55.67708905,37.79924810122437
"проезд. Ставропольский, д. 11, Москва",5032.80,2006,22,,,55.677720550000004,37.799292622104204
"ул. Тарусская, д. 22, к. 3, Москва",11910.00,2012,22,3,220,55.5992966,37.527018066671324
"ул. Тарутинская, д. 1, Москва",17045.00,2004,22,,,55.732068600000005,37.47073484264477
"ул. Тихомирова, д. 3, Москва",11737.00,2003,22,2,167,55.8843853,37.647239481478536
"ул. Тихомирова, д. 19, к. 1, Москва",10372.00,2012,22,,,55.88598575,37.654595487689285
"ул. Трофимова, д. 10, Москва",16112.00,2002,22,,,55.70257735,37.66627230698474
"ул. Туристская, д. 10, к. 1, Москва",10152.30,2005,22,2,171,55.852080099999995,37.42868747260212
"ул. Туристская, д. 25, к. 5, Москва",9127.50,2013,22,,,55.854666,37.4151796
"ул. Удальцова, д. 77, Москва",21231.00,2005,22,,,55.67928954999999,37.49755538075
"ул. Удальцова, д. 79, Москва",24343.80,2004,22,3,Не указано,55.67964695,37.49663140948276
"ул. Фестивальная, д. 22, к. 7, Москва",6473.00,2001,22,,,55.858047850000005,37.50450290466517
"ул. Фестивальная, д. 24А, Москва",20028.00,2002,22,3,Не указано,55.86070355,37.50155951579024
"ул. Фестивальная, д. 41, к. 2, Москва",18290.00,2010,22,,,55.85878865,37.482887330079066
"ул. Фестивальная, д. 41, к. 3, Москва",18345.40,2010,22,2,238,55.859471,37.48217255657784
"ул. Фестивальная, д. 41, к. 4, Москва",14007.00,2014,22,,,55.8601357,37.481392232232764
"ул. Фестивальная, д. 41, к. 1, Москва",13911.00,2015,22,,,55.8580475,37.4831919
"ул. Фестивальная, д. 48, к. 2, Москва",14004.80,2003,22,2,174,55.86411665,37.51205145504113
"ул. Фестивальная, д. 51, к. 1, Москва",6533.60,2003,22,,,55.86045315,37.493701127981666
"б-р. Филевский, д. 7, к. 2, Москва",10147.00,2002,22,,,55.764717000000005,37.48737465
"ул. Флотская, д. 23, к. 1, Москва",6766.50,2001,22,1,87,55.8604517,37.51307581982016
"ул. Флотская, д. 78, Москва",20117.20,2001,22,,,55.85956255,37.5136679
"ул. Флотская, д. 78, к. 1, Москва",8505.90,2002,22,1,87,55.8594746,37.51486804874804
"ул. Фонвизина, д. 7, Москва",15713.00,2000,22,,,55.8205872,37.58359035161661
"ул. Фонвизина, д. 13, Москва",15520.00,2016,22,3,296,55.821109,37.5889304
"ул. Хачатуряна, д. 12, к. 2, Москва",11561.00,2000,22,,,55.857589950000005,37.59813819824548
"ул. Циолковского, д. 6, Москва",20189.50,2002,22,,,55.82939115,37.44839885459792
"ш. Челобитьевское, д. 12, к. 1, Москва",10072.00,2007,22,1,147,55.9132119,37.54773730969435
"ш. Челобитьевское, д. 12, к. 5, Москва",9817.00,2007,22,,,55.9122617,37.5479369
"ш. Челобитьевское, д. 12, к. 6, Москва",9898.00,2007,22,,,55.9125616,37.5477478
"ш. Челобитьевское, д. 14, к. 1, Москва",25383.00,2007,22,4,320,55.91295555,37.55262795100617
"ш. Челобитьевское, д. 14, к. 2, Москва",20265.00,2007,22,,,55.9124063,37.5533543627237
"ш. Челобитьевское, д. 14, к. 3, Москва",5777.00,2007,22,1,84,55.91197895,37.55523335454893
"ш. Челобитьевское, д. 14, к. 4, Москва",5811.00,2007,22,,,55.912401450000004,37.5558124718504
"ш. Челобитьевское, д. 14, к. 5, Москва",6229.00,2007,22,1,84,55.911958,37.5559728
"проезд. Черского, д. 13, Москва",12687.00,2004,22,,,55.87657815,37.578148266247695
"проезд. Черского, д. 15, Москва",12232.00,2010,22,,,55.8767613,37.57635017092382
"ул. Чертановская, д. 66, к. 5, Москва",5034.60,2004,22,1,84,55.59716095,37.582885725087166
"б-р. Чонгарский, д. 26А, к. 1, Москва",26136.50,2017,22,,,55.6534732,37.6190159
"ул. Шереметьевская, д. 37, к. 1, Москва",16550.10,2001,22,,,55.80750385,37.61467866115625
"ш. Щелковское, д. 61, Москва",44240.10,2010,22,5,Не указано,55.811397400000004,37.79220862413521
"ш. Щелковское, д. 95, к. 1, Москва",11419.90,2001,22,,,55.81425165,37.832840095581034
"проезд. Электролитный, д. 16, к. 7, Москва",37023.00,2016,22,1,304,55.6691453,37.6118526
"ш. Энтузиастов, д. 51, Москва",Не заполнено,2006,22,,,55.773174049999994,37.82389284200187
"ш. Энтузиастов, д. 55, Москва",32000.00,2003,22,2,160,55.774169400000005,37.828164256238495
"ш. Энтузиастов, д. 57, Москва",11921.00,2015,22,,,55.77458715,37.82970404713576
"ул. Южнобутовская, д. 8, Москва",10777.00,2003,22,,,55.5440993,37.54062320042363
"ул. Южнобутовская, д. 10, Москва",12172.00,2003,22,2,168,55.54377275,37.5399203
"ул. Южнобутовская, д. 12, Москва",8042.40,2003,22,,,55.54344295,37.5391944
"б-р. Яна Райниса, д. 31, Москва",55457.00,2013,22,,,,
"ул. Ярцевская, д. 16, Москва",8334.00,2013,22,1,147,55.73748055,37.413819973817645
"ул. Ярцевская, д. 27, к. 9, Москва",14140.00,2007,22,,,55.7438978,37.41368635
"ул. Ясногорская, д. 21, к. 3, Москва",11910.00,2012,22,3,220,55.59839975,37.53061549133864
"г. Зеленоград, д. 2037, к. 2037, Москва",11105.70,2013,21,,,55.97168515,37.17053530017061
"г. Зеленоград, к. 2039, Москва",13175.90,2013,21,1,140,55.97120835,37.171271603974034
"г. Зеленоград, к. 2040, Москва",6847.20,2013,21,,,55.970775,37.170428
"г. Зеленоград, к. 2038, Москва",7991.00,2013,21,,,55.97121185,37.16977170536636
"г. Щербинка, тер. квартал Южный, д. 5, Москва",37330.10,2016,21,1,404,,
"г. Щербинка, тер. квартал Южный, д. 6, Москва",37633.60,2016,21,,,,
"г. Щербинка, тер. квартал Южный, д. 9, Москва",39694.90,2016,21,,,,
"ул. Черногрязская 2-я, д. 6, к. 4, Москва",15094.10,2017,21,1,148,55.7615982,37.54818015078561
"ул. Академика Анохина, д. 2, к. 1, Москва",26103.00,2003,21,,,55.6703642,37.4772739
"ул. Академика Анохина, д. 2, к. 2, Москва",27907.00,2003,21,4,286,55.6712534,37.47528177264233
"ул. Академика Анохина, д. 2, к. 3, Москва",24631.00,2001,21,,,55.67258025,37.47506315328653
"ул. Академика Анохина, д. 4, к. 1, Москва",27544.00,2004,21,4,287,55.6694958,37.47383244263658
"ул. Академика Анохина, д. 66, Москва",20732.00,2011,21,,,55.64708135,37.46822785961539
"ул. Академика Королева, д. 10, Москва",66351.70,2009,21,,,55.8233787,37.6196939
"ул. Академика Пилюгина, д. 22, к. 1, Москва",31829.00,2004,21,2,204,55.6705341,37.532232248893415
"пр-кт. Балаклавский, д. 16, Москва",21527.30,2012,21,,,55.642272,37.6044453
"г. Щербинка, ул. Барышевская Роща, д. 12, Москва",82640.80,2015,21,,,55.5031035,37.5387935
"проезд. Береговой, д. 5, к. 2, Москва",57226.70,2015,21,3,113,55.75608285,37.50926301827182
"проезд. Береговой, д. 5, к. 3, Москва",62758.10,2015,21,,,55.75547175,37.50774475
"ул. Академическая Б., д. 24, к. 3, Москва",16594.60,2002,21,3,196,55.824897050000004,37.530434392210026
"пер. Тишинский Б., д. 10, стр. 1, Москва",27356.80,2008,21,,,55.7690513,37.5748126
"ш. Варшавское, д. 160, к. 3, Москва",16818.90,2011,21,3,240,55.583091249999995,37.59068916832916
"пр-кт. Вернадского, д. 92, к. 1, Москва",54013.00,2007,21,,,55.6548652,37.4764386
"ш. Дмитровское, д. 107А, к. 1, Москва",93571.00,2018,21,,,55.8787774,37.5410242
"ул. Изумрудная, д. 65, Москва",14855.80,2015,21,1,140,55.87923095,37.69326663631533
"ул. Левобережная, д. 4, к. 8, Москва",44739.30,2014,21,,,55.871070700000004,37.48050765265502
"пр-кт. Ленинский, д. 83, к. 1, Москва",39726.70,2013,21,,,55.6824014,37.5396358
"пр-кт. Ленинский, д. 83, к. 2, Москва",19669.50,2013,21,2,82,55.6815665,37.5386513
"пр-кт. Ленинский, д. 107, к. 3, Москва",28656.00,2011,21,,,55.6618255,37.5160977
"пр-кт. Ломоносовский, д. 25, к. 3, Москва",86572.20,2010,21,5,322,55.69402385,37.52836119440508
"ул. Минская, д. 1Г, к. 2, Москва",42813.00,2004,21,,,55.712314199999994,37.49889219879901
"ул. Мосфильмовская, д. 88, к. 7, Москва",233442.80,2014,21,1,120,55.705697799999996,37.491179300000006
"ул. Мосфильмовская, д. 88, к. 4, Москва",166638.30,2015,21,,,55.7026694,37.4913811
"ул. Мосфильмовская, д. 88, к. 6, Москва",14609.10,2018,21,,,55.7195145,37.522677
"наб. Нагатинская, д. 32, к. 1, Москва",16904.00,2008,21,2,240,55.6848938,37.66637066100334
"наб. Нагатинская, д. 46, Москва",15820.00,2006,21,,,55.6865652,37.6770527
"ул. Народного Ополчения, д. 52, к. 5, Москва",16610.70,2007,21,,,55.7925027,37.500199611958934
"ул. Нижегородская, д. 7, Москва",21989.00,2010,21,5,328,55.73884275,37.68057808904321
"ул. Нижегородская, д. 17, Москва",22749.00,2009,21,,,55.73780775,37.689539158274755
"ул. Обручева, д. 5А, Москва",25105.30,2015,21,4,365,55.65902465,37.517385216407746
"ул. Обручева, д. 6, Москва",36519.20,2007,21,,,55.66022465,37.51185620138121
"ул. Осташковская, д. 9, к. 5, Москва",34125.50,2015,21,3,240,55.87722565,37.6749723213317
"проезд. Попов, д. 1, к. 2, Москва",9410.00,2006,21,,,55.7844707,37.694625145252694
"ул. Расплетина, д. 22, к. 2, Москва",46096.20,2006,21,,,55.7940323,37.484633385843395
"ул. Сергея Макеева, д. 9, к. 4, Москва",17121.20,2017,21,1,148,55.7617525,37.549402098943816
"б-р. Чонгарский, д. 26А, к. 2, Москва",16349.90,2017,21,,,55.6534732,37.6190159
"ул. Ярцевская, д. 33, к. 1, Москва",17508.60,2018,21,,,55.743867949999995,37.41613684540357
"п. Внуковское, д. Пыхтино, д. 4, стр. по улице Летчика Ульянина, Москва",37975.00,2014,20,7,476,,
"г. Щербинка, кв-л. Южный, д. 4, Москва",37169.60,2017,20,,,55.4942484,37.5557829
"ул. Квесисская 1-я, д. 9, Москва",23440.10,2016,20,2,139,55.7935807,37.5798696
"ул. Черногрязская 2-я, д. 6, к. 3, Москва",15358.10,2017,20,,,55.762274250000004,37.54902409667961
"ул. Филевская 3-я, д. 8, к. 4, Москва",8214.10,2007,20,1,152,55.7393119,37.5003267
"ул. Академика Виноградова, д. 5, Москва",21218.00,2013,20,,,55.63299135,37.48512285076308
"ул. Академика Волгина, д. 8а, Москва",36346.00,2010,20,,,55.6514623,37.5171138
"ул. Ангарская, д. 45, к. 1, Москва",14147.10,2008,20,2,133,55.88003915,37.527446634455934
"ул. Ангарская, д. 45, к. 3, Москва",10398.00,2008,20,,,55.88153805,37.52483013676674
"ул. Ангарская, д. 53, к. 1, Москва",10220.60,2007,20,,,55.8820559,37.5291327
"ул. Ангарская, д. 57, к. 4, Москва",10054.40,2007,20,1,133,55.8837768,37.52631789750771
"ул. Анны Ахматовой (п Внуковское), д. 20, Москва",29411.20,2016,20,,,55.6335692,37.323603
"ул. Анны Ахматовой (п Внуковское), д. 22, Москва",30417.70,2016,20,4,357,55.6335017,37.321370545307104
"ул. Архитектора Власова, д. 6, Москва",89174.00,2005,20,,,55.679552,37.55041814466502
"проезд. Багратионовский, д. 1а, к. 1, Москва",17970.80,2018,20,1,124,55.7460411,37.5133815
"ул. Беловежская, д. 41, Москва",10785.00,2005,20,,,55.7101818,37.39209346248066
"аллея. Березовая, д. 17, к. 1, Москва",73107.00,2017,20,,,55.850098,37.6175576
"б-р. Генерала Карбышева, д. 14, Москва",17756.40,2002,20,2,273,55.78018815,37.4714966242865
"г. Зеленоград, пр-кт. Георгиевский, д. 37, к. 1, Москва",50679.00,2018,20,,,55.9677438,37.1498325
"ул. Ивантеевская, д. 5, к. 1, Москва",9399.00,2010,20,,,55.8207978,37.71812485199284
"наб. Карамышевская, д. 56, Москва",9429.50,2001,20,2,138,55.773949599999995,37.46216769295375
"наб. Карамышевская, д. 60, Москва",14347.00,2016,20,,,55.7753602,37.461018104339004
"ул. Кастанаевская, д. 45, к. 1, Москва",13803.20,2008,20,3,228,55.731666950000005,37.4656672
"ул. Кастанаевская, д. 45, к. 2, Москва",14335.00,2010,20,,,55.73141555,37.4643247
"ш. Каширское, д. 65, к. 1, Москва",54482.00,2018,20,11,746,55.6008039,37.72562839111431
"ш. Каширское, д. 65, к. 2, Москва",44942.60,2018,20,,,55.5998827,37.726140158474195
"б-р. Кленовый, д. 2, Москва",7426.70,2007,20,,,55.6852262,37.67151746821871
"пр-кт. Комсомольский, д. 32, к. 1, Москва",29750.00,2002,20,1,132,55.6819517,37.8907013
"ул. Косыгина, д. 13, к. 1, Москва",22795.00,2011,20,,,55.70280985,37.56331325478142
"ул. Коштоянца, д. 20, к. 2, Москва",16071.00,2006,20,,,55.67497109999999,37.47767560189654
"ул. Коштоянца, д. 20, к. 3, Москва",16008.00,2006,20,1,109,55.675535999999994,37.476773551468526
"ул. Кунцевская, д. 17, Москва",10901.00,2006,20,,,55.72971425,37.4147252
"ш. Ленинградское, д. 25, к. 1, Москва",10752.30,2012,20,1,94,55.82715725,37.488876976473215
"пр-кт. Ленинский, д. 107, к. 1, Москва",39687.60,2017,20,,,55.66367505,37.51469267766531
"пр-кт. Маршала Жукова, д. 39, к. 6, Москва",16750.90,2010,20,1,140,55.7739095,37.47038876973684
"пр-кт. Маршала Жукова, д. 59, Москва",49678.00,2005,20,,,55.7779908,37.4567593
"ул. Маршала Соколовского, д. 1, Москва",24853.00,2005,20,,,55.795439900000005,37.49303393640558
"ул. Маршала Соколовского, д. 10, к. 1, Москва",19825.70,2001,20,1,118,55.793487,37.48707354976802
"ул. Маршала Тимошенко, д. 17, к. 2, Москва",61086.00,2002,20,,,55.7466077,37.3947586
"ул. Мельникова, д. 3, к. 2, Москва",20105.00,2016,20,,,55.72627215,37.67569225405197
"ул. Мироновская, д. 46, Москва",9979.90,2012,20,2,140,55.79180725,37.73323964220042
"ул. Митинская, д. 12, Москва",32190.00,2005,20,,,55.841182599999996,37.3769823531275
"ул. Москворечье, д. 31, к. 1, Москва",30052.90,2008,20,3,387,55.6451504,37.6600296
"наб. Нагатинская, д. 10, к. 3, Москва",51943.90,2013,20,,,55.6827958,37.64550182348487
"наб. Нагатинская, д. 40, стр. А, Москва",7431.00,2006,20,2,114,55.6879533,37.6784915
"наб. Нагатинская, д. 44, к. 1, Москва",20905.00,2009,20,,,55.685439,37.6771632423913
"наб. Нагатинская, д. 56А, Москва",22843.10,2007,20,,,55.6896383,37.6870655
"наб. Нагатинская, д. 56, лит. А, Москва",22816.60,2007,20,3,189,,
"б-р. Нагорный, д. 19, к. 1, Москва",22204.00,2011,20,,,55.671494749999994,37.599503303296345
"ул. Новаторов, д. 8, к. 2, Москва",31425.50,2004,20,,,55.66798465,37.52150404967142
"ул. Новгородская, д. 5, к. 1, Москва",18136.00,2010,20,2,180,55.893015250000005,37.57754144944647
"проезд. Нововладыкинский, д. 1, стр. 4, Москва",22585.50,2017,20,,,55.8503789,37.5822255
"проезд. Нововладыкинский, д. 1, к. 3, Москва",23660.90,2018,20,4,307,55.8508961,37.5766834
"проезд. Нововладыкинский, д. 1, к. 4, Москва",24512.60,2017,20,,,55.850838350000004,37.5753084701873
"ул. Новодмитровская, д. 2, к. 4, Москва",25065.50,2017,20,1,253,55.8041496,37.5905002
"ш. Новокуркинское, д. 23/15, Москва",29215.70,2016,20,,,55.8974621,37.398882929934004
"ул. Новочеремушкинская, д. 44, к. 3, Москва",54826.40,2005,20,,,55.6738459,37.56492412164846
"ул. Озерная, д. 9, к. 3, Москва",7189.20,2018,20,4,80,55.247179,37.232033
"ш. Пятницкое, д. 15, Москва",33194.90,2005,20,,,55.8426482,37.3791778
"ул. Русаковская, д. 1, Москва",17824.00,2006,20,,,55.7819002,37.6701586
"ул. Самуила Маршака (п Внуковское), д. 15, к. 1, Москва",23876.70,2015,20,3,272,55.6370903,37.32984003830569
"б-р. Симферопольский, д. 24, к. 2, Москва",13778.00,2007,20,,,55.6461604,37.604587808743126
"ул. Соловьиная Роща, д. 8, Москва",11722.00,2005,20,1,134,55.89153045,37.40106725729318
"проезд. Ставропольский, д. 13, Москва",9243.30,2007,20,,,55.67826195,37.799725278859725
"ул. Сходненская, д. 35, к. 1, Москва",10992.30,2001,20,1,69,55.8481858,37.4390513
"ул. Твардовского, д. 4, к. 4, Москва",30413.70,2003,20,,,55.7963238,37.3920756
"ул. Тимирязевская, д. 8, к. 1, Москва",20377.20,2009,20,,,55.8105409,37.5709762
"ул. Удальцова, д. 65, Москва",21655.00,2006,20,2,Не указано,55.6789939,37.5004229
"ул. Хачатуряна, д. 12, к. 1, Москва",24369.00,2001,20,,,55.85743945,37.59610512734342
"ул. Циолковского, д. 7, Москва",48040.20,2014,20,,,55.82840395,37.44845440340382
"ул. Чистова, д. 16, к. 1, Москва",10001.20,2012,20,1,133,55.69676685,37.74523119427847
"ул. Шаболовка, д. 10, к. 1, Москва",59461.18,2006,20,,,55.72380595,37.60886560035358
"ул. Шаболовка, д. 23, Москва",65694.50,2006,20,1,513,55.7228302,37.6130332
"ул. Ярцевская, д. 27, к. 8, Москва",8002.00,2007,20,,,55.743544,37.41315025
"г. Зеленоград, к. 848, Москва",21548.40,2014,19,1,208,55.9777026,37.1860909
"г. Зеленоград, к. 829, Москва",18816.50,2017,19,,,55.9808055,37.17860560462703
"проезд. Нагатинский 1-й, д. 14, Москва",28528.00,2016,19,,,55.6757858,37.63213640726921
"ул. Мясниковская 1-я, д. 2, Москва",34755.00,2017,19,3,252,55.8165297,37.7020785
"ул. Парковая 10-я, д. 20, Москва",29942.00,2009,19,,,55.7986071,37.8027238
"пер. Крутицкий 3-й, д. 11, Москва",44284.00,2003,19,,,55.7312589,37.6663036
"проезд. Войковский 5-й, д. 16, к. 2, Москва",11549.00,2006,19,3,Не указано,55.8192045,37.48917413549097
"п. Марушкинское, д. Марушкино, ул. Агрохимическая, д. 3, Москва",43190.20,2017,19,,,,
"п. Сосенское, п. Коммунарка, ул. Александры Монаховой, д. 94, к. 4, Москва",11862.20,2017,19,1,170,,
"п. Сосенское, п. Коммунарка, ул. Александры Монаховой, д. 94, к. 3, Москва",11885.90,2017,19,,,,
"п. Сосенское, п. Коммунарка, ул. Александры Монаховой, д. 94, к. 1, Москва",21348.10,2018,19,3,255,,
"п. Сосенское, п. Коммунарка, ул. Александры Монаховой, д. 98, к. 2, Москва",12133.00,2017,19,,,,
"п. Сосенское, п. Коммунарка, ул. Александры Монаховой, д. 98, к. 3, Москва",12236.70,2017,19,,,,
"аллея. Березовая, д. 17, к. 2, Москва",73107.00,2018,19,11,753,55.849803550000004,37.62107909309236
"ул. Бобруйская, д. 10, к. 1, Москва",9486.10,2007,19,,,55.7365799,37.4035187
"ул. Бобруйская, д. 12, Москва",14402.40,2004,19,,,55.73670855,37.40264805
"ул. Болотниковская, д. 30, к. 2, Москва",10220.80,2015,19,3,183,55.6592665,37.59617982328591
"ул. Болотниковская, д. 30 корп.2, Москва",10220.80,2015,19,,,,
"ул. Очаковская Б., д. 12, к. 1, Москва",17310.70,2012,19,3,226,55.68780955,37.461682641720145
"ул. Очаковская Б., д. 12, к. 3, Москва",17724.20,2014,19,,,55.68799625,37.460831399917545
"ул. Очаковская Б., д. 12, к. 5, Москва",17310.70,2012,19,3,226,55.68692015,37.460328525961465
"ул. Очаковская Б., д. 12, к. 7, Москва",17724.20,2014,19,,,55.68739385,37.45995055032395
"ул. Братеевская, д. 21, к. 5, Москва",9453.80,2000,19,,,55.632113649999994,37.755463795356256
"пр-кт. Буденного, д. 9, Москва",23072.00,2009,19,2,131,55.777674899999994,37.722201814645594
"ул. Бутлерова, д. 14, к. 1, Москва",22982.00,2015,19,,,55.65132975,37.52968543125212
"пр-кт. Вернадского, д. 12, к. 6, Москва",17516.10,2016,19,,,55.684944,37.50931682222583
"пр-кт. Вернадского, д. 37, к. 1Б, Москва",8851.00,2004,19,1,73,55.67789465,37.51045844382328
"пр-кт. Вернадского, д. 44, к. 1, Москва",9569.40,2015,19,,,55.67459375,37.49752075
"ул. Масловка Верхн., д. 25, к. 1, Москва",26274.00,2011,19,3,206,,
"ул. Масловка Верхн., д. 28, Москва",15379.20,2009,19,,,,
"ул. Викторенко, д. 4, к. 1, Москва",32834.10,2006,19,6,273,55.798296,37.52670803051813
"ш. Волоколамское, д. 71, к. 1, Москва",97190.80,2017,19,,,55.8223135,37.4326676
"ул. Гарибальди, д. 7, Москва",47368.70,2009,19,,,55.6775331,37.5365371
"ул. Гарибальди, д. 28, к. 1, Москва",22043.00,2001,19,4,342,55.67039685,37.550598649058976
